stop_id,stop_name,stop_desc,stop_lat,stop_lon,zone_id,stop_url
1000a,BABADAĞI,,37.866175,32.5275417,,
1000d,BABADAĞI,,37.8661833,32.5274333,,
1001a,TAŞKIN PAŞA,,37.863103,32.528414,,
1001d,TAŞKIN PAŞA,,37.863067,32.52823719,,
1002a,TÜTÜNCÜ,,37.8623417,32.52647,,
1002d,TÜTÜNCÜ,,37.8625083,32.52643,,
1003a,ÇAYIR CAMİ,,37.861663,32.530603,,
1003d,ÇAYIR CAMİ,,37.86186,32.530716,,
1004a,ŞİRİNELİ,,37.861214,32.533907,,
1004d,ŞİRİNELİ,,37.86139,32.533929,,
1005a,AKGÖL,,37.860929,32.536343,,
1005d,AKGÖL,,37.8610267,32.53664,,
1006a,CEMİL ÇİÇEK,,37.86055,32.54037,,
1006d,CEMİL ÇİÇEK,,37.86075,32.54038,,
1007a,GUFRAN,,37.870287,32.535682,,
1007d,GUFRAN,,37.870245,32.535339,,
1008a,ADALET SARAYI,,37.8607083,32.54321,,
1008d,ADALET SARAYI,,37.8607167,32.54282,,
1009a,YENİCELER,,37.866588,32.543497,,
1009d,YENİCELER,,37.866579,32.543247,,
100a,BABİL,,37.866743,32.475161,,
100d,BABİL,,37.866737,32.475065,,
1010a,AKYOKUŞ KASRI,,37.879772,32.424767,,
1011a,ÖZBAŞAK,,37.8670167,32.5373,,
1011d,ÖZBAŞAK,,37.8669333,32.53732,,
1012a,ÇİFTELER,,37.866925,32.53371,,
1012d,ÇİFTELER,,37.86685,32.53368,,
1013a,ADALET KONUTLARI,,37.8668084,32.53018,,
1013d,ADALET KONUTLARI,,37.8667583,32.53008,,
1014a,GAZİLER DERNEĞİ,,37.870606,32.510153,,
1014d,GAZİLER DERNEĞİ,,37.872233,32.507606,,
1015d,NAMIK PAŞA CAMİ,,37.871418,32.511983,,
1016a,MEVLANA KÜLTÜR MERKEZİ,,37.8704,32.51578,,
1016d,MEVLANA KÜLTÜR MERKEZİ,,37.8706,32.51588,,
1017a,ADİLE SULTAN,,37.8703167,32.51942,,
1017d,ADİLE SULTAN,,37.8705167,32.51942,,
1018a,HACI KALFA,,37.8700833,32.52402,,
1018d,HACI KALFA,,37.8702833,32.52397,,
1019a,ZELİHA SEYMEN İLKOKULU,,37.8696334,32.52813,,
1019d,ZELİHA SEYMEN İLKOKULU,,37.8698333,32.52809,,
101a,HAVZAN,,37.8674493,32.472535,,
101d,HAVZAN,,37.8674833,32.4725333,,
1020a,SPOR VE KONGRE MERKEZİ,,37.8688333,32.53452,,
1020d,SPOR VE KONGRE MERKEZİ,,37.86905,32.53408,,
1021a,NEFER,,37.8687167,32.53845,,
1021d,NEFER,,37.8689167,32.53847,,
1022a,AKRABA,,37.868767,32.544158,,
1022d,AKRABA,,37.868993,32.544142,,
1023a,İNEBAHTI,,37.868523,32.544614,,
1024a,TİFTİKCİ (E),,37.8689167,32.5518,,
1024d,TİFTİKCİ (E),,37.86915,32.55163,,
1025a,HOBİ BAHÇESİ,,37.868525,32.55476,,
1025d,HOBİ BAHÇESİ,,37.8687334,32.55482,,
1026a,ULUYATIR,,37.86805,32.55789,,
1026d,ULUYATIR,,37.868225,32.55839,,
1027a,İŞBİTİREN,,37.86666884,32.566456,,
1027d,İŞBİTİREN,,37.867094,32.566356,,
1028a,FETİHKENT İLKOKULU,,37.87595,32.5374083,,
1028d,FETİHKENT İLKOKULU,,37.876275,32.537325,,
1029a,OKYAR,,37.866249,32.57027,,
1029d,OKYAR,,37.866484,32.570407,,
102a,OLTU,,37.866741,32.469512,,
102d,OLTU,,37.866828,32.469443,,
1030a,KARATAY BELEDİYESİ TATLICAK TESİSLERİ 1,,37.8658584,32.57299,,
1030d,KARATAY BELEDİYESİ TATLICAK TESİSLERİ 1,,37.8661,32.57338,,
1031a,TAŞTEPE,,37.864937,32.581329,,
1031d,TAŞTEPE,,37.864594,32.581222,,
1032a,TÜRKAN,,37.8636667,32.58768,,
1032d,TÜRKAN,,37.86385,32.58783,,
1033a,MASAL,,37.8630333,32.59196,,
1033d,MASAL,,37.8632083,32.5922,,
1034a,TAŞÇILAR (E),,37.8625833,32.59493,,
1034d,TAŞÇILAR (E),,37.86275,32.59517,,
1035a,BAĞLICA,,37.861275,32.60372,,
1035d,BAĞLICA,,37.86145,32.60393,,
1036a,YÜCESOY,,37.8605583,32.60843,,
1036d,YÜCESOY,,37.860775,32.60841,,
1037a,AÇMA,,37.85877,32.61357,,
1037d,AÇMA,,37.8587217,32.61365,,
1038a,TEZER,,37.8588833,32.61965,,
1038d,TEZER,,37.8590333,32.61987,,
1039a,KIVAMLI,,37.85805,32.62522,,
1039d,KIVAMLI,,37.858275,32.62503,,
103a,5 NOLU SAĞLIK OCAĞI,,37.8650166,32.4660833,,
103d,5 NOLU SAĞLIK OCAĞI,,37.86525,32.4659167,,
1040a,YEŞİLBURSA,,37.8597,32.61353,,
1040d,YEŞİLBURSA,,37.86005,32.61351,,
1041a,OVALI,,37.8571916,32.63248,,
1041d,OVALI,,37.8573333,32.63283,,
1042a,NAZIM,,37.8558667,32.64358,,
1042d,NAZIM,,37.8560667,32.64375,,
1043a,KARABAY,,37.8551167,32.65012,,
1043d,KARABAY,,37.8553,32.65042,,
1044a,KASIMPATI,,37.854156,32.657225,,
1044d,KASIMPATI,,37.854571,32.656838,,
1045d,BATI,,37.703,32.57303,,
1046a,TORAMAN CAMİ,,37.8752417,32.5139917,,
1046d,TORAMAN CAMİ,,37.875325,32.5136583,,
1047a,KONYA EREĞLİ 3,,37.8526,32.67095,,
1047d,KONYA EREĞLİ 3,,37.8528,32.67103,,
1048a,BAKIRTOLU YOLU,,37.8490167,32.7015,,
1048d,BAKIRTOLU YOLU,,37.8492333,32.70143,,
1049a,ÇARŞAMBA ÇAYI 2,,37.8480167,32.71008,,
1049d,ÇARŞAMBA ÇAYI 2,,37.84832,32.71031,,
104a,ADALETLİ,,37.8647083,32.469375,,
104d,ADALETLİ,,37.8647167,32.4691333,,
1050d,KONYA EREĞLİ 1,,37.8470167,32.72088,,
1051d,KONYA EREĞLİ 2,,37.8447,32.74181,,
1052d,KONYA EREĞLİ 4,,37.84521,32.73694,,
1053a,AYAZ,,37.8792248,32.5119591,,
1053d,AYAZ,,37.8792083,32.511825,,
1054a,SAKYATAN GİRİŞİ,,37.8391,32.7848166,,
1054d,SAKYATAN GİRİŞİ,,37.839283,32.7847919,,
1055d,ÇINGIRIK,,37.8424416,32.78444,,
1056d,SAKYATAN SU DEPOSU,,37.8398583,32.78684,,
1057d,14401. SK,,37.842,32.78879,,
1058d,SAKYATAN MAHALLESİ,,37.8449,32.78863,,
1059d,SAKYATAN,,37.8447583,32.78517,,
105a,İYİGÜL,,37.8631334,32.4675,,
105d,İYİGÜL,,37.863275,32.468086,,
1060d,SAKYATAN CAMİ,,37.843925,32.78322,,
1061a,BAKIRTOLU CAMİ,,37.7929084,32.81531,,
1062a,ŞATIR GİRİŞİ,,37.7937,32.78188,,
1063a,ŞATIR ÇOCUK PARKI,,37.7916417,32.77964,,
1064a,ŞATIR ÇIKIŞI,,37.7931,32.77822,,
1065a,HACI VEYİSZADE EFENDİ,,37.830375,32.72503,,
1066a,BAKIRTOLU KOOPERATİF,,37.8378917,32.71856,,
1067a,BEŞ EVLER,,37.8393917,32.71727,,
1068a,KUMRAL,,37.8787333,32.5368667,,
1068d,KUMRAL,,37.878579,32.536872,,
1069a,AKIN,,37.8528666,32.61273,,
1069d,AKIN,,37.8527166,32.61288,,
106a,TAŞDEMİR,,37.863,32.4643333,,
106d,TAŞDEMİR,,37.8631417,32.4644666,,
1070a,ŞADAN,,37.85,32.61225,,
1070d,ŞADAN,,37.84995,32.61242,,
1071a,MALAZGİRT,,37.8469833,32.61188,,
1072a,CAİZ,,37.8451666,32.61265,,
1073a,HASIR,,37.843275,32.61683,,
1074a,TAYYARLAR,,37.8438667,32.61963,,
1075a,APALI,,37.8476,32.62267,,
1076a,KUDRETLİ,,37.847676,32.628185,,
1077a,HARMANDÜZÜ,,37.847604,32.631437,,
1078a,GÜLBEYAZ,,37.8510417,32.63127,,
1079a,KIRÇİÇEĞİ,,37.8524583,32.62773,,
107a,ŞEHİR,,37.861325,32.4647917,,
107d,ŞEHİR,,37.861325,32.464575,,
1080a,ANLATIM,,37.8538833,32.62197,,
1081a,ÖZSEZGİN,,37.8541167,32.6183,,
1082a,HAKİM,,37.8514083,32.61827,,
1083a,BERAT,,37.8496417,32.61853,,
1084a,GÖZÖNÜ,,37.8495667,32.61523,,
1085a,İNCEKAYA,,37.8609166,32.64523,,
1085d,İNCEKAYA,,37.8609166,32.64533,,
1086a,ELİSA,,37.8645667,32.6425,,
1087a,BAĞLAR,,37.8673417,32.58364,,
1087d,BAĞLAR,,37.8672667,32.58346,,
1088a,HASBİHAL,,37.870425,32.58531,,
1088d,HASBİHAL,,37.8705,32.58524,,
1089a,KİREMİT,,37.8704,32.58712,,
1089d,KİREMİT,,37.8704917,32.58712,,
108a,BAYRAKÇI SANAYİ,,37.8593083,32.461525,,
108d,BAYRAKÇI SANAYİ,,37.859425,32.461475,,
1090a,ESENKÖY,,37.867825,32.58706,,
1090d,ESENKÖY,,37.8677333,32.58707,,
1091a,TOPLUCA,,37.8657667,32.5863,,
1091d,TOPLUCA,,37.8658,32.58633,,
1092a,AYÇİÇEĞİ,,37.8652666,32.58855,,
1092d,AYÇİÇEĞİ,,37.8653167,32.58849,,
1093a,TERLER,,37.8657083,32.59081,,
1093d,TERLER,,37.86575,32.59082,,
1094a,GÜLCÜ,,37.865025,32.59877,,
1094d,GÜLCÜ,,37.8650417,32.59883,,
1095a,BADEMYAĞI,,37.8635583,32.60419,,
1095d,BADEMYAĞI,,37.863575,32.60424,,
1096a,NEYZEN,,37.86535,32.60588,,
1096d,NEYZEN,,37.86545,32.60583,,
1097a,HARABE,,37.8668667,32.60803,,
1097d,HARABE,,37.8669166,32.60815,,
1098a,ERDEMİR 4,,37.871178,32.611268,,
1098d,ERDEMİR 4,,37.8711583,32.61111,,
1099a,ÖZDEMİR,,37.8723,32.61218,,
1099d,ÖZDEMİR,,37.8722917,32.61223,,
109a,DÖKME TEPE,,37.8575833,32.4570333,,
109d,DÖKME TEPE,,37.857941,32.456955,,
10a,MİLLET,,37.869269,32.480426,,
10d,MİLLET,,37.869139,32.480683,,
1100a,ERDEMİR 1,,37.8714083,32.61512,,
1100d,ERDEMİR 1,,37.8713917,32.61516,,
1101a,ERDEMİR 2,,37.8695,32.61965,,
1101d,ERDEMİR 2,,37.8695417,32.61965,,
1102a,ERDEMİR 3,,37.8683083,32.62358,,
1102d,ERDEMİR 3,,37.8683083,32.62368,,
1103a,ATIŞ POLİGON YOLU,,37.8628084,32.62035,,
1103d,ATIŞ POLİGON YOLU,,37.8628,32.62041,,
1104a,ŞEHİT ABDULLAH ASLAN 1,,37.865561,32.634231,,
1104d,ŞEHİT ABDULLAH ASLAN 1,,37.865608,32.634243,,
110a,ATEŞBAZ,,37.8578917,32.453,,
110d,ATEŞBAZ,,37.858,32.4531333,,
1111a,SEYFULLAH,,37.87885,32.5332167,,
1111d,SEYFULLAH,,37.878711,32.533221,,
1112a,CELALİYE,,37.8697583,32.5428,,
1112d,CELALİYE,,37.8697583,32.543,,
1113a,KARDELEN,,37.87035,32.5454167,,
1113d,KARDELEN,,37.87029,32.5454167,,
1114a,AKVİRAN,,37.8718667,32.546065,,
1114d,AKVİRAN,,37.8718667,32.546125,,
1115a,SAYDAMLAR,,37.8737183,32.5443583,,
1115d,SAYDAMLAR,,37.8737583,32.5443583,,
1116a,İNCE MEHMET,,37.8731667,32.540075,,
1116d,İNCE MEHMET,,37.8732167,32.540075,,
1117a,ŞEYH ULEMA YAHŞİ CADDESİ,,37.87421,32.5379417,,
1117d,ŞEYH ULEMA YAHŞİ CADDESİ,,37.87425,32.5379417,,
1118a,FETİHKENT,,37.8741333,32.5351583,,
1118d,FETİHKENT,,37.8741833,32.5351583,,
1119a,EVLİYA CAMİ,,37.87364,32.53249,,
1119d,EVLİYA CAMİ,,37.8737,32.53242,,
111a,İKİ ÇAY ARASI,,37.8578833,32.4502,,
111d,İKİ ÇAY ARASI,,37.858025,32.45015,,
1120a,YUSUF İZZETTİN,,37.87846,32.531178,,
1120d,YUSUF İZZETTİN,,37.878401,32.531121,,
1121a,AĞRALI CAMİ,,37.8781583,32.5285583,,
1121d,AĞRALI CAMİ,,37.8779983,32.5285583,,
1122a,HACI VEYİSZADE,,37.8774183,32.5259917,,
1122d,HACI VEYİSZADE,,37.8774583,32.5259917,,
1123a,ŞEYH ULEMA OVALI CAMİ,,37.8767683,32.5231083,,
1123d,ŞEYH ULEMA OVALI CAMİ,,37.8768083,32.5231083,,
1124a,KASIM,,37.8762933,32.52025,,
1124d,KASIM,,37.8763333,32.52025,,
1125a,HACI EMİRZADE,,37.8755017,32.5170833,,
1125d,HACI EMİRZADE,,37.8755417,32.5170833,,
1126a,YUSUF AĞA CAMİ,,37.8750417,32.5149333,,
1127a,ZAMBAKLI CD 2,,37.817041,32.506992,,
1127d,ZAMBAKLI CD 2,,37.817022,32.506945,,
1128a,KÖPRÜBAŞI,,37.8745583,32.5077,,
1128d,KÖPRÜBAŞI,,37.874496,32.50771,,
1129a,SEYİT İBRAHİM,,37.874112,32.5045,,
1129d,SEYİT İBRAHİM,,37.874019,32.504511,,
112a,YEDEK IRMAK,,37.85695,32.4467,,
112d,YEDEK IRMAK,,37.8570833,32.4467666,,
1130a,RUMİ,,37.871725,32.5045917,,
1131a,KÜÇÜKPINAR,,37.818116,32.541251,,
1131d,KÜÇÜKPINAR,,37.818092,32.541143,,
1132a,AKŞAMYILDIZI,,37.824471,32.599246,,
1132d,AKŞAMYILDIZI,,37.824541,32.59917,,
1133a,HANEFİ,,37.818882,32.598596,,
1133d,HANEFİ,,37.818872,32.598659,,
1134a,VATAN SANAYİ (E),,37.867472,32.563301,,
1134d,VATAN SANAYİ (E),,37.867172,32.563301,,
1135a,YAYLAPINAR KAŞ CAMİ,,37.816703,32.498743,,
1135d,YAYLAPINAR KAŞ CAMİ,,37.816739,32.498652,,
1136a,SARNIÇ CAMİ,,37.876825,32.51205,,
1136d,SARNIÇ CAMİ,,37.8767417,32.5121417,,
1137a,ŞEHİT MUHARREM ÖKSÜZ,,37.877625,32.5138083,,
1137d,ŞEHİT MUHARREM ÖKSÜZ,,37.877575,32.5138083,,
1138a,ŞEHİT AZAM GÜDENDEDE,,37.879225,32.5163,,
1138d,ŞEHİT AZAM GÜDENDEDE,,37.879175,32.5163,,
1139a,ŞEHİT İBRAHİM MARAL,,37.8811917,32.519525,,
1139d,ŞEHİT İBRAHİM MARAL,,37.881075,32.5195,,
113a,FETHİYE,,37.8563083,32.4434417,,
113d,FETHİYE,,37.8563834,32.4434333,,
1140a,GÖREME,,37.882716,32.522073,,
1140d,GÖREME,,37.8826583,32.521875,,
1141a,BÜLBÜL,,37.8846417,32.5249,,
1141d,BÜLBÜL,,37.8845217,32.5249,,
1142a,GARİP NASRULLAH CAMİ,,37.8861417,32.527825,,
1142d,GARİP NASRULLAH CAMİ,,37.8859917,32.527875,,
1143a,HALİL ETEM,,37.887483,32.530855,,
1143d,HALİL ETEM,,37.88732,32.530925,,
1144a,HZ. YUSUF CAMİ,,37.888755,32.533757,,
1144d,HZ. YUSUF CAMİ,,37.888872,32.53358,,
1145a,GÖZTEPE CAMİ,,37.935204,32.436216,,
1145d,GÖZTEPE CAMİ,,37.935105,32.436264,,
1146a,ÇENGİLTİ ÇIKIŞI,,38.001051,32.772334,,
1146d,ÇENGİLTİ ÇIKIŞI,,38.000816,32.772442,,
1147a,ATARDAMAR,,37.890129,32.540522,,
1147d,ATARDAMAR,,37.890529,32.541102,,
1148a,HİLAL,,37.8865917,32.5423083,,
1148d,HİLAL,,37.88662,32.54265,,
1149a,YUNUS EMRE,,37.851955,32.53624,,
1149d,YUNUS EMRE,,37.851915,32.536316,,
114a,ÇAĞLAYAN,,37.854275,32.4393083,,
114d,ÇAĞLAYAN,,37.8543417,32.4392083,,
1150a,MÜZAKERE,,37.848372,32.533295,,
1150d,MÜZAKERE,,37.848314,32.533365,,
1151a,AKÇAKAYA,,37.846305,32.531321,,
1151d,AKÇAKAYA,,37.846273,32.531386,,
1152a,MANOLYA,,38.008438,32.487312,,
1152d,MANOLYA,,38.008519,32.487076,,
1153a,PALMİYE,,38.009796,32.490573,,
1153d,PALMİYE,,38.009888,32.490605,,
1154a,KIRLANGIÇ,,38.006783,32.492711,,
1154d,KIRLANGIÇ,,38.006672,32.492816,,
1155a,TOPKAYA,,37.873735,32.536628,,
1155d,TOPKAYA,,37.8736967,32.5364345,,
1156a,KARMA İLKOKULU,,37.877951,32.495488,,
1157a,CİZRELİ,,37.879227,32.504231,,
1157d,CİZRELİ,,37.879191,32.504285,,
1158a,LİLYUM,,38.006402,32.485802,,
1158d,LİLYUM,,38.006545,32.485558,,
1159a,KAMELYA,,38.006727,32.482773,,
1159d,KAMELYA,,38.006619,32.482789,,
115a,KEHRİBAR,,37.8534333,32.4377667,,
115d,KEHRİBAR,,37.8535334,32.4376666,,
1160a,FULYA,,38.009636,32.481497,,
1160d,FULYA,,38.009707,32.48119,,
1161a,AHMET ŞUAYİP,,37.772936,32.408412,,
1161d,AHMET ŞUAYİP,,37.77288,32.408519,,
1162a,ESTERGON,,37.775503,32.410729,,
1162d,ESTERGON,,37.775524,32.410579,,
1163a,MOTİF,,37.778605,32.411078,,
1163d,MOTİF,,37.778529,32.410928,,
1164a,MİMOZA,,38.006094,32.490283,,
1164d,MİMOZA,,38.005957,32.490439,,
1165a,MİHMAN,,37.862431,32.643885,,
1166a,KEMAH,,37.8912167,32.5251083,,
1166d,KEMAH,,37.891178,32.524921,,
1167a,HORASANLI İLKOKULU,,37.893142,32.526825,,
1167d,HORASANLI İLKOKULU,,37.893263,32.526681,,
1168a,TUĞRA,,37.984626,32.900764,,
1168d,TUĞRA,,37.984563,32.900683,,
1169a,HAKKANİYET,,37.8973583,32.5321166,,
1169d,HAKKANİYET,,37.897288,32.531896,,
116a,AVGIN,,37.8513,32.43475,,
116d,AVGIN,,37.8515417,32.4351083,,
1170a,KEÇECİLER SON DURAK CAMİ,,37.8989417,32.53515,,
1170d,KEÇECİLER SON DURAK CAMİ,,37.898896,32.535023,,
1171a,KISMET,,37.897725,32.5369083,,
1171d,KISMET,,37.89773,32.53728,,
1172a,ÇEVİK KUVVET,,37.894015,32.538591,,
1172d,ÇEVİK KUVVET,,37.894369,32.539154,,
1173a,BAŞAK,,37.890275,32.5337417,,
1173d,BAŞAK,,37.890325,32.5334583,,
1174a,AÇELYA,,37.974068,32.507852,,
1174d,AÇELYA,,37.974239,32.508035,,
1175a,ANEMON,,37.974685,32.503899,,
1175d,ANEMON,,37.974793,32.503931,,
1176a,FESLEGEN,,37.974864,32.496957,,
1176d,FESLEGEN,,37.975012,32.496925,,
1177a,TÜZEL,,37.8796584,32.537625,,
1177d,TÜZEL,,37.879475,32.5374917,,
1178a,DÖKÜM,,37.896391,32.528355,,
1178d,DÖKÜM,,37.896247,32.528601,,
1179a,ÇAKIRDOĞAN,,37.888625,32.5213333,,
1179d,ÇAKIRDOĞAN,,37.8884583,32.5212417,,
117a,ÇANDIR,,37.8499083,32.4309083,,
117d,ÇANDIR,,37.8499416,32.4308417,,
1180a,YEDİLER LALELİ CAMİ,,37.8874083,32.5195166,,
1180d,YEDİLER LALELİ CAMİ,,37.8871583,32.5191917,,
1181a,YEDİLER IŞIKLAR CAMİ,,37.885275,32.5156833,,
1181d,YEDİLER IŞIKLAR CAMİ,,37.8851417,32.5155667,,
1182a,SARIKIŞLA,,37.883647,32.512959,,
1182d,SARIKIŞLA,,37.883625,32.5131,,
1183a,BAĞÖNÜ,,37.881875,32.5098583,,
1183d,BAĞÖNÜ,,37.881725,32.50975,,
1184a,KEÇECİLER CAMİ,,37.8803584,32.506925,,
1184d,KEÇECİLER CAMİ,,37.8802083,32.5068083,,
1185a,SARIK,,37.885675,32.4999583,,
1185d,SARIK,,37.885675,32.4999983,,
1186a,FLORA,,37.948994,32.519724,,
1187a,KARACİHAN,,37.886933,32.504248,,
1187d,KARACİHAN,,37.88696,32.504145,,
1188a,ŞEHİT SADIK ORTAOKULU,,37.888846,32.506458,,
1188d,ŞEHİT SADIK ORTAOKULU,,37.888776,32.506522,,
1189a,ARAPLAR MEZARLIĞI,,37.890235,32.508957,,
1189d,ARAPLAR MEZARLIĞI,,37.890089,32.508963,,
118a,KARACİĞAN CAMİ,,37.859824,32.471251,,
118d,KARACİĞAN CAMİ,,37.859872,32.471074,,
1190a,SUYOLU,,37.891778,32.511114,,
1190d,SUYOLU,,37.891844,32.511023,,
1191a,BURHANİYE,,37.893416,32.513533,,
1191d,BURHANİYE,,37.893482,32.513453,,
1192a,SELİMİYE,,37.894956,32.515293,,
1192d,SELİMİYE,,37.895102,32.515132,,
1193a,MEFTUNLU,,37.897496,32.517375,,
1193d,MEFTUNLU,,37.897625,32.517255,,
1194a,CEVHER DUDAYEV,,37.899957,32.51908,,
1194d,CEVHER DUDAYEV,,37.899977,32.518774,,
1195a,HASŞEHİR,,37.9021583,32.5206833,,
1195d,HASŞEHİR,,37.902575,32.5208083,,
1196a,10424. SK,,37.9045417,32.5227083,,
1196d,10424. SK,,37.904725,32.5226583,,
1197a,MUHABİR,,37.903625,32.524625,,
1197d,MUHABİR,,37.9036166,32.52485,,
1198a,MESNEVİ,,37.9007583,32.5260417,,
1198d,MESNEVİ,,37.9007417,32.5263084,,
1199a,AŞKAR HÖYÜĞÜ PARKI,,37.8983667,32.5269916,,
1199d,AŞKAR HÖYÜĞÜ PARKI,,37.89835,32.5272333,,
11a,MİLLET BAHÇESİ,,37.867033,32.4827,,
11d,MİLLET BAHÇESİ,,37.867175,32.48251,,
1200a,KARKENT BAFRA,,37.897075,32.52625,,
1201a,ÜÇDERE,,37.895305,32.5235,,
1201d,ÜÇDERE,,37.89537,32.523409,,
1202a,KAZDAĞI,,37.893645,32.521258,,
1202d,KAZDAĞI,,37.893741,32.521178,,
1203a,İSMAİL HAKKI,,37.891003,32.517278,,
1203d,İSMAİL HAKKI,,37.890912,32.517342,,
1204a,AYDINLAR,,37.88475196,32.50808667,,
1205a,AKÇİL,,37.888717,32.514032,,
1205d,AKÇİL,,37.888639,32.514118,,
1206a,KAVAKALTI CAMİ,,37.886522,32.511076,,
1207a,BAHTIGÜZEL,,37.88178759602254,32.503700349479914,,
1207d,BAHTIGÜZEL,,37.881734685432,32.50357696786523,,
1208a,VAHDET,,37.88366208350107,32.50299761071801,,
1208d,VAHDET,,37.88362745499796,32.502917647361755,,
1209d,EREĞLİ YOLU,,37.837948,32.783907,,
120a,ERMİŞLİ,,37.859488,32.466478,,
120d,ERMİŞLİ,,37.859365,32.46628,,
1210a,HACI HASANBAŞI 2,,37.8800814999589,32.50336239114404,,
1210d,HACI HASANBAŞI 2,,37.88011349091098,32.50328192487359,,
1211a,ARAPLAR CAMİ,,37.8836667,32.5056917,,
1211d,ARAPLAR CAMİ,,37.8837417,32.505675,,
1212a,KÜRDEN,,37.8860834,32.5072,,
1213a,ARAPLAR AK CAMİ,,37.8897917,32.5073083,,
1214a,HACIBACAK CAMİ,,37.8913584,32.5073167,,
1215a,CENGİZ TOPEL İLKOKULU,,37.8936167,32.50745,,
1216a,SEYİT KUTUP,,37.9080416,32.526025,,
1216d,SEYİT KUTUP,,37.9081416,32.526025,,
1217a,BABI ALİ,,37.906375,32.5293083,,
1217d,BABI ALİ,,37.9066,32.52964,,
1218a,MEVLANA PTT,,37.903675,32.5324417,,
1218d,MEVLANA PTT,,37.90379,32.53273,,
1219a,BESTAMİ,,37.902375,32.5362583,,
1220a,RAGIP,,37.90465,32.5385833,,
1221a,RAVZA,,37.906679,32.539523,,
1222a,EHLİBEYT,,37.90745,32.5345333,,
1225a,HURDACILAR SANAYİ,,37.9129417,32.532775,,
1225d,HURDACILAR SANAYİ,,37.9130917,32.5326584,,
1226d,İKBAL CAMİ,,37.9109083,32.5301417,,
1227a,10579. SK,,37.9162434,32.535675,,
1227d,10579. SK,,37.9162634,32.535575,,
1228a,BÜSAN GİRİŞİ,,37.9170917,32.5373417,,
1229a,10643. SK,,37.915034,32.541228,,
122a,DEĞİRMENLİ,,37.85485,32.45075,,
122d,DEĞİRMENLİ,,37.855,32.4506667,,
1230a,10647. SK,,37.9124917,32.5457583,,
1231a,10652. SK,,37.911425,32.5502083,,
1231d,10652. SK,,37.911425,32.5498083,,
1232a,10648. SK,,37.9136834,32.547925,,
1232d,10648. SK,,37.9136834,32.547725,,
1233a,BÜSAN CAMİ,,37.915375,32.5447833,,
1234a,KOSGEB,,37.917075,32.5417333,,
1235a,10642. SK,,37.919075,32.5380417,,
1236a,MEDCEZİR,,37.921275,32.533975,,
1237a,ŞATIR YOLU 1,,37.79395,32.7746416,,
1238a,YAZICIOĞLU,,37.8761083,32.531675,,
1238d,YAZICIOĞLU,,37.8762583,32.5316457,,
1239d,VUSLAT,,37.92745,32.5326833,,
123a,ZÜMRÜT CAMİ,,37.8519917,32.448075,,
123d,ZÜMRÜT CAMİ,,37.852075,32.4481083,,
1240d,10683. SK,,37.9266333,32.5339,,
1241d,10687. SK,,37.9275166,32.5345917,,
1242a,KIŞLAÖNÜ 1,,37.868033,32.513501,,
1242d,KIŞLAÖNÜ 1,,37.868086,32.513297,,
1244a,DİKİLİTAŞ,,37.95484,32.47237,,
1244d,DİKİLİTAŞ,,37.95459,32.47237,,
1245a,BAYKARA,,37.95285,32.4745,,
1245d,BAYKARA,,37.95265,32.4747167,,
1246a,KARATAY HÜKÜMET KONAĞI,,37.863891,32.543327,,
1246d,KARATAY HÜKÜMET KONAĞI,,37.863834,32.543129,,
1247a,TATKÖY BARAJ AYRIMI,,37.937523,32.396734,,
1247d,TATKÖY BARAJ AYRIMI,,37.937589,32.396755,,
1248a,MEDİCANA HASTANESİ,,37.8935083,32.49809,,
1249d,ZENCİRLİ 3,,38.00377,32.835478,,
124a,YEŞİLDAL,,37.848214,32.446109,,
124d,YEŞİLDAL,,37.848231,32.446021,,
1250d,ZENCİRLİ 5,,38.008335,32.834667,,
1251a,IRMAK KENARI,,37.886502,32.513521,,
1252a,3. SK,,37.96408,32.61929,,
1253a,EVRENKÖY 2,,37.96733,32.61393,,
1253d,EVRENKÖY 2,,37.967302,32.613812,,
1254a,ARIKAN,,37.849659,32.51017,,
1254d,ARIKAN,,37.849775,32.50991,,
1255a,BOZTEPE,,37.851625,32.51281,,
1255d,BOZTEPE,,37.8516084,32.51242,,
1256a,MAHİLER,,37.8543583,32.51673,,
1256d,MAHİLER,,37.854425,32.51638,,
1257a,DEMİRCAN,,37.8565417,32.52026,,
1257d,DEMİRCAN,,37.8566083,32.51986,,
1258a,ASMALI KONAK,,37.859503,32.523978,,
1258d,ASMALI KONAK,,37.859649,32.523586,,
1259a,KURUDERE,,37.864555,32.524883,,
1259d,KURUDERE,,37.864602,32.525195,,
125a,GÜRNİHAL,,37.8456917,32.4443917,,
1261a,ASTAR,,37.86843975028669,32.52534627914429,,
1261d,ASTAR,,37.86853079824533,32.525158524513245,,
1262a,AZİMET,,37.87175,32.52741,,
1262d,AZİMET,,37.871925,32.52716,,
1263a,KARFET FETİH CAMİ,,37.8764,32.5277,,
1263d,KARFET FETİH CAMİ,,37.8763,32.5274,,
1264a,KARATAY KENT,,37.8814666,32.52743,,
1264d,KARATAY KENT,,37.8814,32.52708,,
1265a,FINDIK,,37.8839833,32.5273,,
1265d,FINDIK,,37.8838917,32.52694,,
1266a,ŞALVARCI,,37.8877583,32.52397,,
1266d,ŞALVARCI,,37.887525,32.52381,,
1267a,OĞUZHAN,,37.8900083,32.52059,,
1267d,OĞUZHAN,,37.889875,32.52032,,
1268a,BAYATLI,,37.8920584,32.51753,,
1268d,BAYATLI,,37.8919917,32.51714,,
1269a,MERCİDABIK,,37.893625,32.51515,,
1269d,MERCİDABIK,,37.8933917,32.51504,,
126a,CEMAL BARDAKÇI İLKOKULU,,37.847205,32.442719,,
126d,CEMAL BARDAKÇI İLKOKULU,,37.847381,32.442692,,
1270a,ALA,,37.8944833,32.51205,,
1270d,ALA,,37.89425,32.51215,,
1271a,CANÖZ,,37.89485,32.50805,,
1271d,CANÖZ,,37.8946667,32.50815,,
1272a,İSMET PAŞA İLKOKULU,,37.8761584,32.5001584,,
1273a,NESRİN AYŞEGÜL İLKOKULU,,37.881675,32.4956917,,
1273d,NESRİN AYŞEGÜL İLKOKULU,,37.8812166,32.4957334,,
1274a,MUSALLA ŞEHİTLİK,,37.8842883,32.4973017,,
1274d,MUSALLA ŞEHİTLİK,,37.8843083,32.49713,,
1275a,EMNİYET MÜDÜRLÜĞÜ,,37.88712,32.499468,,
1275d,EMNİYET MÜDÜRLÜĞÜ,,37.887109,32.499114,,
1276a,TOKLU,,37.889375,32.501125,,
1276d,TOKLU,,37.8895167,32.5009083,,
1277a,KOCAENSE,,37.8918833,32.502925,,
1277d,KOCAENSE,,37.8918417,32.502625,,
1278a,HAVA LOJMANLARI,,37.8932583,32.5040083,,
1278d,HAVA LOJMANLARI,,37.893225,32.5036584,,
1279a,GÜNDÜZ,,37.8977834,32.5073083,,
1279d,GÜNDÜZ,,37.897725,32.5069083,,
127a,SAKA CAMİ,,37.8466917,32.439575,,
127d,SAKA CAMİ,,37.846775,32.439525,,
1280a,ABDÜLBASRİ,,37.9008083,32.509525,,
1280d,ABDÜLBASRİ,,37.9010417,32.509325,,
1281a,HEKİM GAZNEVİ,,37.9031583,32.511225,,
1281d,HEKİM GAZNEVİ,,37.903275,32.510975,,
1282a,KARAYOLLARI CAMİ,,37.9066666,32.513825,,
1282d,KARAYOLLARI CAMİ,,37.9067917,32.5135583,,
1283a,KARAYOLLARI LOJMANLARI,,37.9099,32.5157166,,
1283d,KARAYOLLARI LOJMANLARI,,37.9098333,32.5153667,,
1284a,LALECİLER,,37.916614,32.519809,,
1284d,LALECİLER,,37.916694,32.519444,,
1285a,ALTINKAYA,,37.8832417,32.5372833,,
1285d,ALTINKAYA,,37.8833667,32.5371,,
1286a,ÇEVRELİ,,37.919502,32.522116,,
1286d,ÇEVRELİ,,37.919802,32.521848,,
1287a,BÜSAN,,37.923309,32.525978,,
1287d,BÜSAN,,37.923381,32.525431,,
1288a,AYKENT ,,37.929474,32.532019,,
1288d,AYKENT ,,37.928562,32.530468,,
1289a,TOPRAK MAHSULLERİ OFİSİ,,37.931659,32.534154,,
1289d,TOPRAK MAHSULLERİ OFİSİ,,37.931919,32.533816,,
128a,TAHİR BÜYÜKKÖRÜKCÜ İHL,,37.8446667,32.437275,,
128d,TAHİR BÜYÜKKÖRÜKCÜ İHL,,37.844725,32.4372083,,
1290a,MODESA,,37.9347916,32.5370583,,
1290d,MODESA,,37.9354917,32.5373083,,
1291a,TÜRK YILDIZLARI PARKI 1,,37.9521583,32.555425,,
1291d,TÜRK YILDIZLARI PARKI 1,,37.952575,32.5552916,,
1292a,KONSAN,,37.943625,32.5462167,,
1292d,KONSAN,,37.9438083,32.5459167,,
1293a,TÜRK YILDIZLARI PARKI 2,,37.9550417,32.558575,,
1293d,TÜRK YILDIZLARI PARKI 2,,37.9554417,32.5584917,,
1294a,AKSARAY YOLU KÖPRÜSÜ,,37.946825,32.5497417,,
1294d,AKSARAY YOLU KÖPRÜSÜ,,37.9466917,32.5489917,,
1295a,AKSARAY KAVŞAĞI,,37.94995,32.5567833,,
1295d,AKSARAY KAVŞAĞI,,37.950175,32.5567,,
1296a,TÜRK YILDIZLARI PARKI 3,,37.9579583,32.561725,,
1296d,TÜRK YILDIZLARI PARKI 3,,37.958325,32.5616083,,
1297a,TÜYAP,,37.9505084,32.56065,,
1297d,TÜYAP,,37.9507417,32.5603083,,
1298a,ASLIM,,37.9528667,32.5753666,,
1298d,ASLIM,,37.95325,32.5753,,
1299a,TÜMOSAN,,37.9560833,32.5964167,,
1299d,TÜMOSAN,,37.9564167,32.5965833,,
129a,KAZAN BENDİ CAMİ,,37.8434917,32.4348333,,
129d,KAZAN BENDİ CAMİ,,37.8435583,32.434875,,
12a,MUHACİR PAZARI,,37.866475,32.4882333,,
12d,MUHACİR PAZARI,,37.866575,32.4881333,,
1300a,LİLA,,38.008532,32.493519,,
1300d,LİLA,,38.008501,32.49361,,
1301a,421. SK,,37.9584667,32.6119,,
1301d,421. SK,,37.9586667,32.6117333,,
1302a,2. ORGANİZE AKSARAY GİRİŞİ,,37.9608417,32.6172917,,
1302d,2. ORGANİZE AKSARAY GİRİŞİ,,37.9611,32.617168,,
1303a,2. ORGANİZE 2,,37.968096,32.610585,,
1303d,2. ORGANİZE 2,,37.968292,32.610585,,
1304a,2. ORGANİZE 3,,37.967535,32.608357,,
1304d,2. ORGANİZE 3,,37.967435,32.608357,,
1305a,2. ORGANİZE 4,,37.9702,32.6080083,,
1305d,2. ORGANİZE 4,,37.9701667,32.6079083,,
1306a,2. ORGANİZE 5,,37.9727167,32.6064167,,
1306d,2. ORGANİZE 5,,37.9728417,32.6062083,,
1307a,2. ORGANİZE 6,,37.9745917,32.605225,,
1307d,2. ORGANİZE 6,,37.9745083,32.6051583,,
1308a,2. ORGANİZE 7,,37.9782,32.6030333,,
1308d,2. ORGANİZE 7,,37.9781834,32.6029166,,
1309d,2. ORGANİZE 8,,37.980169,32.604487,,
130a,SERT,,37.843975,32.4328833,,
130d,SERT,,37.8440083,32.4328917,,
1310d,2. ORGANİZE 9,,37.981767,32.598441,,
1312a,9. SK,,37.9895,32.6055417,,
1312d,9. SK,,37.9893,32.6055917,,
1313a,VALİ İHSAN DEDE,,37.9913583,32.6071916,,
1313d,VALİ İHSAN DEDE,,37.9911083,32.6072417,,
1314a,SANAYİ 13. SK,,37.9904917,32.6098917,,
1314d,SANAYİ 13. SK,,37.990475,32.6097417,,
1315a,2. ORGANİZE ÇIKIŞI,,37.9870417,32.6010917,,
1315d,2. ORGANİZE ÇIKIŞI,,37.9869416,32.6008333,,
1316a,ORGANİZE 1,,37.9672833,32.6260583,,
1316d,ORGANİZE 1,,37.9672166,32.6259417,,
1317a,SANAYİ 6. SK,,37.970475,32.6244916,,
1317d,SANAYİ 6. SK,,37.9706583,32.624275,,
1318a,8. SK,,37.9744417,32.625725,,
1318d,8. SK,,37.97455,32.625575,,
1319a,ZİYAEDDİN,,37.9777583,32.6288917,,
1319d,ZİYAEDDİN,,37.9779583,32.6288583,,
131a,İLKOKUL,,37.8422083,32.430725,,
131d,İLKOKUL,,37.8423167,32.4306167,,
1320a,ÇELİMLİ,,37.9794417,32.6290834,,
1320d,ÇELİMLİ,,37.9795417,32.6287667,,
1321a,19. SK,,37.981525,32.6254667,,
1321d,19. SK,,37.9814917,32.6253417,,
1322a,13. SK 2,,37.983525,32.6219417,,
1322d,13. SK 2,,37.9835583,32.62175,,
1323a,13. SK,,37.985475,32.6186,,
1323d,13. SK,,37.9854917,32.6183917,,
1324a,3. ORGANİZE,,37.988075,32.614125,,
1324d,3. ORGANİZE,,37.988075,32.614075,,
1325a,TÜRK YILDIZLARI PARKI 4,,37.9611,32.5651,,
1325d,TÜRK YILDIZLARI PARKI 4,,37.9615417,32.565025,,
1326a,KAYACIK YAĞMUR,,37.994997,32.5999,,
1326d,KAYACIK YAĞMUR,,37.99513,32.5996,,
1327d,DEMİREL,,37.940913,32.423593,,
1328a,TÜRK YILDIZLARI PARKI 5,,37.967275,32.5716417,,
1328d,TÜRK YILDIZLARI PARKI 5,,37.9676417,32.5715834,,
1329a,LALEHAN CD,,37.96475,32.615375,,
1329d,LALEHAN CD,,37.964599,32.61549,,
132a,DURUNDAY,,37.8401417,32.4315583,,
132d,DURUNDAY,,37.8402167,32.4314917,,
1330a,TÜRK YILDIZLARI PARKI 6,,37.9705083,32.575125,,
1330d,TÜRK YILDIZLARI PARKI 6,,37.970875,32.5750583,,
1331a,PINARBAŞI GİRİŞİ,,38.021475,32.6278917,,
1331d,PINARBAŞI GİRİŞİ,,38.021475,32.6278667,,
1332a,16722. SK,,38.0323583,32.6158333,,
1332d,16722. SK,,38.0323083,32.6158166,,
1333a,MOLLA GÜRANİ,,38.045725,32.603875,,
1333d,MOLLA GÜRANİ,,38.0458583,32.6037417,,
1334a,16742. SK,,38.0472917,32.6029083,,
1334d,16742. SK,,38.0473583,32.602825,,
1335a,HOCA NASREDDİN,,38.050525,32.6009583,,
1335d,HOCA NASREDDİN,,38.050625,32.6008417,,
1336a,16825. SK,,38.0540917,32.5988084,,
1336d,16825. SK,,38.0541583,32.598675,,
1337a,16827. SK,,38.056325,32.597425,,
1337d,16827. SK,,38.056425,32.597325,,
1338a,16829. SK,,38.0574583,32.5951583,,
1338d,16829. SK,,38.0574417,32.5950667,,
1339a,PINARBAŞI CAMİ,,38.0592334,32.5941,,
1339d,PINARBAŞI CAMİ,,38.05935,32.5940166,,
133a,BALOVA,,37.8374,32.43145,,
133d,BALOVA,,37.8375333,32.4314417,,
1340a,PINARBAŞI SON,,38.0633833,32.59475,,
1340d,PINARBAŞI SON,,38.06345,32.5947167,,
1341a,SULTAN MEHMET,,38.0681,32.5959833,,
1341d,SULTAN MEHMET,,38.0681334,32.5959667,,
1342a,SARICALAR MAHALLE GİRİŞİ,,38.0858083,32.6082417,,
1342d,SARICALAR MAHALLE GİRİŞİ,,38.085825,32.608225,,
1343a,18351. SK,,38.0871917,32.6102917,,
1343d,18351. SK,,38.0872667,32.6102667,,
1344a,25756. SK,,38.1033417,32.555375,,
1344d,25756. SK,,38.1033083,32.5553833,,
1345a,ÇALTI,,38.10275,32.5526833,,
1345d,ÇALTI,,38.1026083,32.55225,,
1346a,SOLAK,,38.0409667,32.6055,,
1346d,SOLAK,,38.0409167,32.6055417,,
1347a,16706. SK,,38.0378583,32.603625,,
1347d,16706. SK,,38.0378417,32.6036583,,
1348a,SAFA CAMİ,,38.036475,32.600275,,
1348d,SAFA CAMİ,,38.036375,32.6002417,,
134a,PİR ALİLER,,37.8354,32.4313333,,
134d,PİR ALİLER,,37.8354333,32.4313833,,
1350a,BİLİM MERKEZİ,,37.986875,32.5919,,
1350d,BİLİM MERKEZİ,,37.9866083,32.5909917,,
1351a,BİRLİK PARKI,,37.9769917,32.5821083,,
1351d,BİRLİK PARKI,,37.9773583,32.5820417,,
1352a,ESKİ ANKARA CD,,37.9789417,32.5840667,,
1352d,ESKİ ANKARA CD,,37.9793083,32.584025,,
1353a,HAVA ALANI,,37.9831417,32.5881583,,
1353d,HAVA ALANI,,37.9833583,32.587975,,
1354a,TÜRK YILDIZLARI PARKI 7,,37.9737083,32.5786417,,
1354d,TÜRK YILDIZLARI PARKI 7,,37.973925,32.5783583,,
1356a,ÇALTI HZ OSMAN CAMİ,,38.1,32.5467834,,
1356d,ÇALTI HZ OSMAN CAMİ,,38.0999417,32.546825,,
1358a,YAYLAPINAR,,37.822045,32.499526,,
1358d,YAYLAPINAR,,37.821984,32.49951,,
1359a,DOLUM TESİSİ,,38.0221417,32.6534583,,
1359d,DOLUM TESİSİ,,38.0220917,32.6536334,,
135a,ÜÇYOL CAMİ,,37.8343084,32.4278083,,
135d,ÜÇYOL CAMİ,,37.834275,32.4278583,,
1360a,16905. SK,,38.0239917,32.67455,,
1360d,16905. SK,,38.0240166,32.6746,,
1361a,TÖMEK CAMİ,,38.0240334,32.6794,,
1362a,16913. SK,,38.0248584,32.6794333,,
1363a,ORTAKONAK 1,,37.9675667,32.6955583,,
1363d,ORTAKONAK 1,,37.9675917,32.695525,,
1364a,ORTAKONAK 3,,37.9646417,32.6965917,,
1364d,ORTAKONAK 3,,37.9646667,32.6966,,
1365a,ORTAKONAK 2,,37.967275,32.689775,,
1365d,ORTAKONAK 2,,37.9674917,32.6896083,,
1366a,ÇENGİLTİ CAMİ,,38.0046583,32.7722333,,
1366d,ÇENGİLTİ CAMİ,,38.004625,32.7721917,,
1367a,ÇENGİLTİ İLKOKULU,,38.0069,32.7719666,,
1367d,ÇENGİLTİ İLKOKULU,,38.0069667,32.7719083,,
1368a,ÇENGİLTİ 1,,38.0051583,32.7741583,,
1368d,ÇENGİLTİ 1,,38.0052167,32.7741834,,
1369a,KOCA YUSUF 1,,38.0225833,32.6635,,
1369d,KOCA YUSUF 1,,38.0227,32.66385,,
136a,DEVECİ,,37.8365666,32.4259,,
136d,DEVECİ,,37.8365083,32.4259583,,
1370a,ACIDORT KÖYÜ,,37.9698166,32.8005667,,
1371a,ACIDORT GİRİŞİ,,37.970607,32.796828,,
1371d,ACIDORT GİRİŞİ,,37.970643,32.796925,,
1372a,ZENCİRLİ 2,,38.004175,32.8317417,,
1373a,ZENCİRLİ CAMİ,,38.0034084,32.83405,,
1374a,ZENCİRLİ 4,,38.0032,32.8388,,
1374d,ZENCİRLİ 4,,38.003275,32.8386417,,
1375a,DİVANLAR KÖYÜ YOL İÇİ,,37.9811583,32.9033417,,
1375d,DİVANLAR KÖYÜ YOL İÇİ,,37.98125,32.9034,,
1376a,DİVANLAR CAMİ,,37.9813667,32.90685,,
1377a,DİVANLAR İLKOKULU,,37.98025,32.9046167,,
1378a,ABDÜLAZİZ,,37.981755,32.489109,,
1378d,ABDÜLAZİZ,,37.982121,32.489209,,
1379a,DR. ALİ EĞRİBAŞ,,37.8949583,32.50162,,
1379d,DR. ALİ EĞRİBAŞ,,37.894925,32.50215,,
137a,FENERSİZ,,37.84855,32.4492833,,
137d,FENERSİZ,,37.8485667,32.44935,,
1380a,ŞEYH EDEBALI,,37.666329,32.588778,,
1380d,ŞEYH EDEBALI,,37.665997,32.588995,,
1381a,TOKAT,,37.812473,32.495243,,
1381d,TOKAT,,37.812447,32.49538,,
1382a,YÜREKLİ,,37.9043666,32.5026666,,
1383a,GÖLBAŞI 1,,37.9069,32.5032833,,
1384d,SARIER,,37.906545,32.48729,,
1385d,TEMSİLİ,,37.908719,32.485659,,
1386a,5. MURAD,,37.984872,32.486653,,
1386d,5. MURAD,,37.984985,32.486889,,
1387d,TAHRAN,,37.910615,32.487387,,
1388a,ARDIÇLI TOKİ 1,,38.001194,32.492706,,
1388d,ARDIÇLI TOKİ 1,,38.00126,32.492725,,
1389a,ARDIÇLI TOKİ 2,,38.00166,32.490468,,
1389d,ARDIÇLI TOKİ 2,,38.001816,32.490668,,
138a,DUTLUCA,,37.8486917,32.4520583,,
138d,DUTLUCA,,37.8486833,32.4521667,,
1391a,ARDIÇLI TOKİ 3,,38.003751,32.487703,,
1391d,ARDIÇLI TOKİ 3,,38.003677,32.487607,,
1392a,YAHYA,,37.9103333,32.50425,,
1393a,ARDIÇLI TOKİ GİRİŞ,,37.998268,32.491412,,
1393d,ARDIÇLI TOKİ GİRİŞ,,37.998125,32.491431,,
1394a,TAŞER,,37.9700666,32.53435,,
1395a,EĞRİLMEZ,,37.9745,32.5219417,,
1395d,EĞRİLMEZ,,37.974453,32.521741,,
1396a,ÇIRAĞAN,,37.8886,32.489975,,
1396d,ÇIRAĞAN,,37.8889255,32.4903583,,
1397a,YANAL,,37.8921583,32.4927917,,
1397d,YANAL,,37.8921583,32.4930417,,
1398d,KONYA CEZAEVİ,,37.867265,32.546454,,
1399a,SELÇUKLU YHT GARI,,37.8969,32.499387,,
1399d,SELÇUKLU YHT GARI,,37.896737,32.499516,,
139a,AKÇALILAR,,37.8482083,32.4549083,,
139d,AKÇALILAR,,37.848225,32.45495,,
13a,BODUR,,37.866,32.4905583,,
13d,BODUR,,37.8659,32.4905583,,
1400a,MANİFATURACILAR,,37.899175,32.5029833,,
1400d,MANİFATURACILAR,,37.899275,32.502775,,
1401a,ADAPTE,,37.9065083,32.4946417,,
1401d,ADAPTE,,37.9064083,32.494775,,
1402a,RADAR,,37.908275,32.4948333,,
1402d,RADAR,,37.908375,32.494875,,
1403a,MİMAR SİNAN CAMİ,,37.9095416,32.4927583,,
1403d,MİMAR SİNAN CAMİ,,37.9095667,32.49285,,
1404a,MEHMET ZAHİD KOTKU İHL,,37.912075,32.494375,,
1404d,MEHMET ZAHİD KOTKU İHL,,37.9121416,32.494475,,
1405a,ANI,,37.9142584,32.4952834,,
1405d,ANI,,37.9144583,32.49525,,
1406a,TARAKÇI,,37.9174167,32.4926366,,
1406d,TARAKÇI,,37.9174167,32.4925166,,
1407a,KABİLİYET,,37.9200333,32.4926483,,
1407d,KABİLİYET,,37.9200333,32.4925083,,
1408a,MASUMHANE,,37.9218,32.4939666,,
1408d,MASUMHANE,,37.92185,32.4939666,,
1409a,SAKARYA,,37.92178,32.4969334,,
1409d,SAKARYA,,37.92185,32.4969334,,
140a,DÜNDARLI,,37.851375,32.458925,,
1410a,SÖĞÜTDİBİ,,37.9230267,32.501599,,
1410d,SÖĞÜTDİBİ,,37.9230367,32.50156,,
1411a,ÖZSAHRA,,37.9245667,32.5020583,,
1411d,ÖZSAHRA,,37.9246167,32.5021417,,
1412a,BESİM,,37.92645,32.5002333,,
1412d,BESİM,,37.9268,32.5003667,,
1413a,MALAZGİRT CAMİ,,37.928395,32.4991216,,
1413d,MALAZGİRT CAMİ,,37.928425,32.4991916,,
1414a,MEHTAP,,37.9301917,32.4966417,,
1414d,MEHTAP,,37.9302417,32.4967083,,
1415a,CEYLANGÖZÜ,,37.9313667,32.49295,,
1415d,CEYLANGÖZÜ,,37.931325,32.49315,,
1416a,HİCRET CAMİ,,37.9326,32.49525,,
1416d,HİCRET CAMİ,,37.9325,32.49525,,
1417a,MEHMET AKİF LİSESİ,,37.9326,32.4972666,,
1417d,MEHMET AKİF LİSESİ,,37.932525,32.4973583,,
1418a,CAZİBE,,37.9339167,32.4996333,,
1418d,CAZİBE,,37.93385,32.4997834,,
1419a,OTOGAR,,37.94855,32.51075,,
1419d,OTOGAR,,37.948768,32.510723,,
141a,DAYILI,,37.852325,32.456075,,
141d,DAYILI,,37.8523084,32.456125,,
1420a,YAŞAYAN,,37.9477084,32.4856917,,
1420d,YAŞAYAN,,37.9474917,32.4856833,,
1421a,KALETAŞ,,37.9477417,32.4823416,,
1421d,KALETAŞ,,37.947675,32.4821083,,
1422a,HUZUR BAHÇESİ 1,,37.9507417,32.4782417,,
1422d,HUZUR BAHÇESİ 1,,37.9509,32.4779667,,
1423a,HUZUR BAHÇESİ 2,,37.953676,32.478085,,
1423d,HUZUR BAHÇESİ 2,,37.953585,32.477881,,
1424a,ARUZ,,37.94235,32.49895,,
1424d,ARUZ,,37.9423334,32.49905,,
1425a,AYANOĞLU,,37.9371834,32.5044334,,
1425d,AYANOĞLU,,37.937025,32.5044917,,
1426a,EYÜP SULTAN CAMİ,,37.9372,32.5083834,,
1426d,EYÜP SULTAN CAMİ,,37.9370083,32.508125,,
1427a,FULDA,,37.9510666,32.5231167,,
1427d,FULDA,,37.951012,32.522903,,
1428a,BİZİM,,37.94575,32.4989667,,
1428d,BİZİM,,37.9457,32.4991417,,
1429a,TÜRKÜ,,37.944145,32.4999017,,
1429d,TÜRKÜ,,37.9440783,32.499875,,
142a,MÜDAFA,,37.8539166,32.4533667,,
142d,MÜDAFA,,37.8539834,32.45335,,
1430a,DİKMETAŞ,,37.9428,32.5034834,,
1430d,DİKMETAŞ,,37.9428,32.5034,,
1431a,CUMHURİYET LİSESİ,,37.9401333,32.5028,,
1431d,CUMHURİYET LİSESİ,,37.940134,32.5027008,,
1432a,BİNKONUT PAZAR,,37.937824,32.503523,,
1432d,BİNKONUT PAZAR,,37.937805,32.503448,,
1433a,DİYANET YURDU,,37.9143833,32.49166,,
1433d,DİYANET YURDU,,37.9143417,32.49171,,
1434a,SULTANİYE,,37.9147167,32.4882667,,
1434d,SULTANİYE,,37.9147583,32.4882583,,
1435a,GÜLTEPE,,37.9156,32.4856167,,
1435d,GÜLTEPE,,37.9156917,32.4855917,,
1436a,TERCÜMAN,,37.917375,32.48703,,
1436d,TERCÜMAN,,37.9174583,32.4868,,
1437a,MESNET,,37.9194167,32.4883334,,
1437d,MESNET,,37.9193167,32.488325,,
1438a,ÇAM SAKIZI,,37.919725,32.4853,,
1438d,ÇAM SAKIZI,,37.9197583,32.485125,,
1439a,GÜLFİDAN,,37.9181916,32.4821917,,
1439d,GÜLFİDAN,,37.918275,32.4821417,,
143a,BULVAR,,37.8411583,32.4529084,,
143d,BULVAR,,37.8413417,32.452975,,
1440a,SEÇKİNSARAY,,37.9166417,32.4791583,,
1440d,SEÇKİNSARAY,,37.9166917,32.4790083,,
1441a,BAĞCI,,37.9183583,32.4779,,
1441d,BAĞCI,,37.9182667,32.4780083,,
1442a,GÖZCÜLER,,37.921475,32.4769083,,
1442d,GÖZCÜLER,,37.9216,32.47695,,
1443a,ŞEYHİ,,37.924382,32.475784,,
1443d,ŞEYHİ,,37.924422,32.47586,,
1444a,İSMAİL KAYA,,37.9269583,32.4746917,,
1444d,İSMAİL KAYA,,37.926825,32.4748583,,
1445a,BURMA,,37.931286,32.472394,,
1445d,BURMA,,37.931307,32.472512,,
1446a,GÜLYAĞI,,37.9337417,32.4707417,,
1446d,GÜLYAĞI,,37.9337583,32.470825,,
1447a,DAMARLAR,,37.9369917,32.4686083,,
1447d,DAMARLAR,,37.936975,32.468725,,
1448a,ŞİRVAN,,37.939825,32.4667583,,
1448d,ŞİRVAN,,37.9398917,32.4668417,,
1449a,ORTAKAYA,,37.9426417,32.464875,,
1449d,ORTAKAYA,,37.9427583,32.4649083,,
144a,KIVANÇ,,37.839875,32.4501167,,
144d,KIVANÇ,,37.8399583,32.450075,,
1450a,NURCAN,,37.9456083,32.4627917,,
1450d,NURCAN,,37.9457417,32.4628417,,
1451a,KELEBEKLER VADİSİ,,37.948636,32.461085,,
1451d,KELEBEKLER VADİSİ,,37.94861,32.461209,,
1452a,ARIBALI,,37.9502333,32.4586083,,
1452d,ARIBALI,,37.9503167,32.4586334,,
1453a,İLTİFAT,,37.9504,32.4556333,,
1453d,İLTİFAT,,37.9504833,32.4555,,
1454a,KTO MESLEKİ EĞİTİM MERKEZİ,,37.945233,32.556284,,
1454d,KTO MESLEKİ EĞİTİM MERKEZİ,,37.945195,32.556216,,
1455a,YILDIRIM,,37.9547167,32.453925,,
1455d,YILDIRIM,,37.955058,32.454005,,
1456a,VEYSEL,,37.954175,32.45835,,
1456d,VEYSEL,,37.954025,32.458175,,
1457a,BAĞLARBAŞI CAMİ,,37.9551166,32.4607766,,
1457d,BAĞLARBAŞI CAMİ,,37.9551166,32.4608166,,
1458a,ARPADERESİ,,37.887648,32.536064,,
1458d,ARPADERESİ,,37.887686,32.535742,,
1459a,BAHARİSTAN,,37.957202,32.462516,,
1459d,BAHARİSTAN,,37.957172,32.462495,,
145a,KAVAS,,37.8382584,32.4472583,,
145d,KAVAS,,37.8382917,32.4471,,
1460a,GÜLİSTAN,,37.956899,32.465466,,
1460d,GÜLİSTAN,,37.956847,32.465483,,
1461a,BEYLERBEYİ,,37.95784,32.46956,,
1461d,BEYLERBEYİ,,37.95776,32.46967,,
1462a,GÜLÜMSER,,37.956099,32.474364,,
1462d,GÜLÜMSER,,37.956109,32.474575,,
1463a,YILDIZLI,,37.95162,32.47212,,
1463d,YILDIZLI,,37.95155,32.47213,,
1464a,BARANA,,37.959,32.4734667,,
1464d,BARANA,,37.9588333,32.47315,,
1465a,AHMET YESEVİ,,37.958975,32.4764916,,
1465d,AHMET YESEVİ,,37.9588167,32.4763167,,
1466a,LOKMAN HEKİM LİSESİ,,37.9589667,32.479375,,
1466d,LOKMAN HEKİM LİSESİ,,37.9588167,32.4793,,
1467a,VEYSEL KARANİ,,37.961037,32.519617,,
1467d,VEYSEL KARANİ,,37.960709,32.519308,,
1468a,GÜLÇAYI,,37.96445,32.5196334,,
1468d,GÜLÇAYI,,37.964488,32.519455,,
1469a,AYAZAĞA,,37.967154,32.521509,,
1469d,AYAZAĞA,,37.967284,32.521234,,
146a,KUMOCAĞI,,37.8377333,32.4429666,,
146d,KUMOCAĞI,,37.8378167,32.4430333,,
1470a,ÖZÇİÇEK,,37.9720167,32.5224,,
1470d,ÖZÇİÇEK,,37.971946,32.522197,,
1471a,TARAFTAR,,37.9481,32.4906083,,
1471d,TARAFTAR,,37.94805,32.4906083,,
1472a,ÜNAL,,37.944833,32.492988,,
1472d,ÜNAL,,37.9447334,32.493175,,
1473a,AKKONAK,,37.952525,32.492075,,
1473d,AKKONAK,,37.952525,32.492575,,
1474a,AYŞE KEMAL İNANÇ İHL,,37.9545334,32.5229166,,
1474d,AYŞE KEMAL İNANÇ İHL,,37.954468,32.522699,,
1475a,KONYA DİŞ HASTANESİ,,37.9496417,32.493,,
1475d,KONYA DİŞ HASTANESİ,,37.9496417,32.4932,,
1476a,DR. HALİL ÜRÜN,,37.948675,32.4964084,,
1476d,DR. HALİL ÜRÜN,,37.9480666,32.4960083,,
1477a,SELÇUKLU BELEDİYESİ,,37.9487833,32.5007667,,
1477d,SELÇUKLU BELEDİYESİ,,37.9481,32.5007334,,
1478a,BEYAZ KARANFİL,,37.9486334,32.5053667,,
1478d,BEYAZ KARANFİL,,37.94825,32.5052333,,
1479a,ÖZDEYİŞ,,37.861411,32.528625,,
147a,ÖZAL,,37.8376333,32.4401666,,
147d,ÖZAL,,37.8377,32.4402167,,
1480a,OĞUZ KAĞAN İLKOKULU,,37.911325,32.478075,,
1480d,OĞUZ KAĞAN İLKOKULU,,37.911166,32.47818,,
1481a,KADER,,37.9223,32.4849667,,
1481d,KADER,,37.9223334,32.48505,,
1482a,BUHARA NUR CAMİ,,37.9249833,32.4848833,,
1482d,BUHARA NUR CAMİ,,37.925,32.4851834,,
1483a,TEKGÜL,,37.9286917,32.487225,,
1483d,TEKGÜL,,37.9285417,32.487225,,
1484a,ATASEVEN,,37.9057417,32.4912833,,
1484d,ATASEVEN,,37.9055666,32.4911,,
1485a,ÖZIŞIK,,37.935832,32.482976,,
1485d,ÖZIŞIK,,37.935883,32.482997,,
1486a,YAHYAKENT,,37.938771,32.4818,,
1486d,YAHYAKENT,,37.938771,32.481854,,
1487a,ERPOLAT,,37.940487,32.484081,,
1487d,ERPOLAT,,37.940439,32.484039,,
1488a,İNTİZAM,,37.9404166,32.4870667,,
1488d,İNTİZAM,,37.9403166,32.4870416,,
1489a,OVADÜZÜ,,37.939871,32.489554,,
1489d,OVADÜZÜ,,37.939865,32.489667,,
148a,LALEBAHÇE İLKOKULU,,37.8361416,32.436925,,
148d,LALEBAHÇE İLKOKULU,,37.836375,32.4371083,,
1490a,YERLİKAYA,,37.9378834,32.4883833,,
1490d,YERLİKAYA,,37.9378416,32.4882583,,
1491a,ÖZDUMAN,,37.9359583,32.4895916,,
1491d,ÖZDUMAN,,37.9358333,32.4895417,,
1492a,KAŞGARLI MAHMUT,,37.937,32.4943,,
1492d,KAŞGARLI MAHMUT,,37.9372666,32.4943667,,
1493a,YENER,,37.9416083,32.504875,,
1493d,YENER,,37.9416833,32.5050417,,
1494a,REVAN,,37.9416167,32.5082,,
1494d,REVAN,,37.9416917,32.5084083,,
1495a,ULUNAY,,37.9432,32.5094667,,
1495d,ULUNAY,,37.9431917,32.5092917,,
1496a,DOLUNAY,,37.947481,32.509504,,
1496d,DOLUNAY,,37.9474,32.509358,,
1497a,ZEKİ ALTINDAĞ CAMİ,,37.9521,32.4984916,,
1497d,ZEKİ ALTINDAĞ CAMİ,,37.9519917,32.4983167,,
1498a,ADLİYE LOJMANLARI,,37.9521,32.4947583,,
1498d,ADLİYE LOJMANLARI,,37.9520166,32.4946583,,
1499a,ŞENSÖZLÜ,,37.954025,32.4897583,,
1499d,ŞENSÖZLÜ,,37.9540084,32.4893,,
149a,ÇALIKLI CAMİ,,37.834975,32.4341583,,
149d,ÇALIKLI CAMİ,,37.8351417,32.4344584,,
14a,MEYDAN 1,,37.866075,32.4930417,,
14d,MEYDAN 1,,37.865935,32.4930417,,
1500a,AHMETLER,,37.9904167,32.5124583,,
1500d,AHMETLER,,37.9904833,32.5119666,,
1501a,PARSANA YAYLA CAMİ,,37.956463,32.485761,,
1501d,PARSANA YAYLA CAMİ,,37.956383,32.48548,,
1502a,KARADİĞİN DERESİ 2,,37.748447,32.363482,,
1502d,KARADİĞİN DERESİ 2,,37.748525,32.363427,,
1503a,GÖZTEPE KONUTLARI GİRİŞ,,37.934195,32.431404,,
1503d,GÖZTEPE KONUTLARI GİRİŞ,,37.934074,32.431522,,
1504a,SONUÇ,,37.9673,32.4807084,,
1504d,SONUÇ,,37.9674583,32.4808583,,
1505a,YAVUZSOY,,37.9659583,32.4849333,,
1505d,YAVUZSOY,,37.9660583,32.4852417,,
1506a,ŞEHİT ERCAN ÇELİK,,37.963125,32.4921083,,
1506d,ŞEHİT ERCAN ÇELİK,,37.963275,32.4922334,,
1507a,ÇANAKKALE,,37.961875,32.495175,,
1507d,ÇANAKKALE,,37.9619917,32.4954667,,
1508a,ELMALILI HAMDİ HOCA,,37.9607917,32.4979417,,
1508d,ELMALILI HAMDİ HOCA,,37.9608583,32.498375,,
1509a,SEMİH,,37.9604,32.5030167,,
1509d,SEMİH,,37.9605834,32.5030167,,
150a,PETEKALAN,,37.834125,32.4318583,,
150d,PETEKALAN,,37.8341583,32.4318833,,
1510a,ERENLER,,37.9865084,32.5124167,,
1510d,ERENLER,,37.9866167,32.5119833,,
1511a,OTOGAR CAMİ,,37.950025,32.5071584,,
1511d,OTOGAR CAMİ,,37.9500834,32.5070667,,
1512a,KÖRÜKÇÜ,,37.9614917,32.5059,,
1512d,KÖRÜKÇÜ,,37.9616667,32.5056334,,
1513a,GÜLLÜNAR,,37.9647417,32.5074834,,
1513d,GÜLLÜNAR,,37.9648583,32.5073417,,
1514a,CANFEDA,,37.9673,32.509475,,
1514d,CANFEDA,,37.9673084,32.50925,,
1515a,ULUSAL,,37.97695,32.51575,,
1515d,ULUSAL,,37.9770917,32.5156917,,
1516a,AYÇEKEN,,37.9781666,32.5085166,,
1516d,AYÇEKEN,,37.9780833,32.5085584,,
1517a,ŞENER,,37.982825,32.5123583,,
1517d,ŞENER,,37.9828333,32.5121,,
1518a,YAZIR TOKİ İLKOKULU,,37.983664,32.489819,,
1518d,YAZIR TOKİ İLKOKULU,,37.9837135,32.489629,,
1519a,MÜCADELE,,37.985934,32.493046,,
1519d,MÜCADELE,,37.985987,32.492885,,
151a,PİRHASAN MEZARLIĞI,,37.83295,32.4288833,,
151d,PİRHASAN MEZARLIĞI,,37.8329517,32.429005,,
1520a,ŞEHİT MUSTAFA AKYÜZ,,37.9886084,32.4913334,,
1520d,ŞEHİT MUSTAFA AKYÜZ,,37.988525,32.49115,,
1521d,TEAŞ TRAFO,,37.84373,32.74926,,
1524a,KÖYCEĞİZ KAMPÜS 2,,37.86545,32.4203667,,
1525a,SAFAHAT,,37.9396,32.50925,,
1526a,KANDİL,,37.9363166,32.5112166,,
1526d,KANDİL,,37.9363166,32.5108833,,
1527a,FERHATLI,,37.933025,32.5106416,,
1527d,FERHATLI,,37.93295,32.510275,,
1528a,TEKNİK LİSE,,37.9250667,32.5084667,,
1528d,TEKNİK LİSE,,37.9254416,32.508225,,
1529a,1. ORGANİZE,,37.9223,32.50848,,
1529d,1. ORGANİZE,,37.92256,32.50805,,
152a,AHENKLİ,,37.8307917,32.426475,,
152d,AHENKLİ,,37.8309083,32.4264417,,
1530a,MOBİLYACILAR KAVŞAĞI,,37.9165083,32.507375,,
1530d,MOBİLYACILAR KAVŞAĞI,,37.9157583,32.5060083,,
1531a,KOZA,,37.911825,32.5015917,,
1531d,KOZA,,37.9117917,32.5010583,,
1532a,OĞUZELİ,,37.907401,32.496544,,
1532d,OĞUZELİ,,37.90738,32.4962,,
1534a,MAUN,,37.908587,32.495551,,
1534d,MAUN,,37.908551,32.495642,,
1535a,NAİMA,,37.910916,32.497381,,
1535d,NAİMA,,37.9108417,32.497375,,
1536a,VEZİRHAN,,37.9131666,32.4984333,,
1536d,VEZİRHAN,,37.9132,32.4985167,,
1537a,KÜÇÜK,,37.915525,32.498425,,
1537d,KÜÇÜK,,37.9153333,32.4985,,
1538a,KALEKÖY,,37.9170513,32.4991836,,
1538d,KALEKÖY,,37.917,32.4992667,,
1539a,FETHİYE ONSUN İLKOKULU,,37.92025,32.498453,,
1539d,FETHİYE ONSUN İLKOKULU,,37.92004,32.498588,,
153a,KAYNAKLAR,,37.8289417,32.4233417,,
153d,KAYNAKLAR,,37.8290583,32.4233167,,
1540a,LALE,,37.9291,32.502575,,
1540d,LALE,,37.928875,32.5026916,,
1541a,BURÇİN,,37.9339833,32.5026666,,
1541d,BURÇİN,,37.934,32.5028,,
1542a,HAKİM KONAKLARI,,37.982384,32.497923,,
1542d,HAKİM KONAKLARI,,37.982403,32.498148,,
1543a,PINARBAŞI KÖPRÜ ,,38.043119,32.605956,,
1544a,FİDANCI,,37.866596,32.45925,,
1544d,FİDANCI,,37.866725,32.45939,,
1545a,SALEF,,37.892794,32.530903,,
1545d,SALEF,,37.892682,32.530721,,
1546a,DAĞSARAY,,37.897225,32.4915333,,
1547a,OTOGAR KAVŞAĞI,,37.94946,32.512318,,
1548a,HIZIR,,38.005856,32.53486,,
1548d,HIZIR,,38.005897,32.534896,,
1549a,SİVASLI ALİ KEMAL,,37.8762167,32.458675,,
1549d,SİVASLI ALİ KEMAL,,37.8762417,32.4588917,,
154a,HACIGİDEN,,37.8312166,32.42305,,
154d,HACIGİDEN,,37.8311833,32.42315,,
1550a,MÜBECCEL,,37.8724084,32.4579417,,
1550d,MÜBECCEL,,37.8724,32.4582167,,
1551a,MELİKŞAH PARKI,,37.8696667,32.458125,,
1551d,MELİKŞAH PARKI,,37.869725,32.4583583,,
1552a,SELÇUKLU BELEDİYESİ ORTAOKULU,,37.9860417,32.4951417,,
1552d,SELÇUKLU BELEDİYESİ ORTAOKULU,,37.9860833,32.495225,,
1553a,CUMHURİYET POLİS MERKEZİ,,37.9427,32.5121,,
1553d,CUMHURİYET POLİS MERKEZİ,,37.9427,32.51185,,
1554a,SUKUNET,,37.9671183,32.5288416,,
1554d,SUKUNET,,37.9670166,32.5288333,,
1556a,BÜŞRA,,37.9692,32.51572,,
1556d,BÜŞRA,,37.96915,32.51535,,
1557a,SOYTÜRK,,37.9694033,32.5303334,,
1557d,SOYTÜRK,,37.9694,32.5304333,,
1558a,ARDIÇLI 16601,,38.01745,32.4333,,
1558d,ARDIÇLI 16601,,38.0174167,32.43327,,
1559a,ARAPAĞIL MEVKİ,,38.02115,32.38385,,
1559d,ARAPAĞIL MEVKİ,,38.0210833,32.38383,,
155a,ANASULTAN CAMİ,,37.8336167,32.42255,,
155d,ANASULTAN CAMİ,,37.8336417,32.4226083,,
1560a,AKASYA,,38.021575,32.37856,,
1560d,AKASYA,,38.0215584,32.3785,,
1561a,YENİ BELEDİYE CD,,38.0629,32.3312,,
1561d,YENİ BELEDİYE CD,,38.0629584,32.33118,,
1562a,TEKİN,,38.0654417,32.32986,,
1562d,TEKİN,,38.0655,32.32968,,
1563a,SIDKI,,37.9512583,32.5181334,,
1563d,SIDKI,,37.9512583,32.5180934,,
1564a,TURGAY,,37.9544583,32.5177333,,
1564d,TURGAY,,37.9544283,32.5176833,,
1565a,ABİDİN SANİYE ERÇAL ORTAOKULU,,37.956923,32.517287,,
1565d,ABİDİN SANİYE ERÇAL ORTAOKULU,,37.95688,32.517093,,
1566a,DÖNERLİ,,37.960475,32.5222583,,
1566d,DÖNERLİ,,37.960475,32.5222083,,
1567a,MTA GİRİŞİ,,37.9617167,32.52275,,
1567d,MTA GİRİŞİ,,37.9617667,32.52275,,
1568a,GÖKÇELİ,,37.9620334,32.52695,,
1568d,GÖKÇELİ,,37.9620167,32.52705,,
1569a,VELİ KÖY,,37.965075,32.5268417,,
1569d,VELİ KÖY,,37.965075,32.526925,,
156a,TÜRKASLAN,,37.8333417,32.417925,,
156d,TÜRKASLAN,,37.8333667,32.4179666,,
1570a,ÖZBEK,,37.969862,32.527651,,
1570d,ÖZBEK,,37.969891,32.527644,,
1571a,SALİHDEDE,,37.9724333,32.5284334,,
1571d,SALİHDEDE,,37.972325,32.5285083,,
1572a,YÜCETÜRK,,37.9742417,32.5281417,,
1572d,YÜCETÜRK,,37.9742917,32.5282583,,
1573a,RAĞBET,,37.9763417,32.5249334,,
1573d,RAĞBET,,37.9764166,32.5249917,,
1574a,KEŞMİR,,37.97625,32.5227667,,
1574d,KEŞMİR,,37.9763917,32.5230167,,
1576a,PAMUKPINAR,,37.919975,32.4426833,,
1576d,PAMUKPINAR,,37.9201084,32.4427417,,
1577a,ESATPAŞA,,37.9223917,32.4441417,,
1577d,ESATPAŞA,,37.9226083,32.4442917,,
1578a,KUYTU,,37.9220834,32.44725,,
1578d,KUYTU,,37.9217417,32.4474417,,
1579a,SEZER,,37.9187417,32.4485083,,
1579d,SEZER,,37.918525,32.448625,,
157a,ERHAT,,37.8304666,32.4276333,,
157d,ERHAT,,37.830325,32.4277083,,
1580a,ŞEHİT CAFER TEMEL,,37.9584834,32.5268333,,
1580d,ŞEHİT CAFER TEMEL,,37.9583166,32.52695,,
1581a,MEMKO,,37.9557833,32.5294333,,
1581d,MEMKO,,37.9558667,32.5295583,,
1582a,MÜBAH,,37.9548333,32.5309,,
1582d,MÜBAH,,37.95485,32.53095,,
1583a,AKŞAM,,37.9517167,32.5308167,,
1583d,AKŞAM,,37.9518,32.5309166,,
1584a,SANCAKTEPE PARKI,,37.9519334,32.5291667,,
1585a,GÖNÜLLÜ,,37.9492417,32.53335,,
1585d,GÖNÜLLÜ,,37.9492583,32.5335166,,
1586a,KAĞITHANE,,37.9498817,32.536275,,
1586d,KAĞITHANE,,37.9497517,32.53635,,
1587a,ZAMBAK,,37.9498333,32.5396583,,
1587d,ZAMBAK,,37.9497833,32.5395833,,
1588a,ŞEHİT ENES KAYA,,37.9480417,32.531475,,
1588d,ŞEHİT ENES KAYA,,37.9476833,32.5307,,
1589a,ASUDE,,37.9478916,32.5272416,,
1589d,ASUDE,,37.94755,32.527175,,
158a,AHMET PAŞA,,37.828175,32.4263083,,
158d,AHMET PAŞA,,37.828125,32.4263917,,
1590a,MİZAN,,37.94839,32.520137,,
1590d,MİZAN,,37.948142,32.520132,,
1591a,DR. SADIK AHMET,,37.9487417,32.516975,,
1591d,DR. SADIK AHMET,,37.9484,32.5169833,,
1592a,LEYLEKLİ PARKI,,37.89141,32.45693,,
1592d,LEYLEKLİ PARKI,,37.89148,32.4568,,
1593a,EFE,,38.06421,32.33038,,
1593d,EFE,,38.06425,32.33029,,
1594a,BOSNA PAZAR,,38.0117083,32.5221917,,
1594d,BOSNA PAZAR,,38.0117083,32.5221417,,
1595a,MESAJ,,38.0146666,32.5213833,,
1595d,MESAJ,,38.0148754,32.5217743,,
1596a,BOSNA MESAJ,,38.0176417,32.5234083,,
1596d,BOSNA MESAJ,,38.0177078,32.523674,,
1597a,KAMBAŞ,,38.0177083,32.526325,,
1597d,KAMBAŞ,,38.0176917,32.5262083,,
1598a,GÖZTEPE KONUTLARI,,37.9356833,32.44015,,
1599a,NİZAM,,38.0153083,32.5299583,,
1599d,NİZAM,,38.015425,32.5297667,,
159a,OLCAY FİDANLIĞI,,37.8247583,32.4253917,,
159d,OLCAY FİDANLIĞI,,37.8246,32.4254333,,
1600a,VATANSEVER,,38.01505,32.5316417,,
1600d,VATANSEVER,,38.0151,32.5317,,
1601a,YALDIZ,,38.0166416,32.5280083,,
1601d,YALDIZ,,38.0165167,32.528025,,
1602a,YUNUS EMRE CAMİ,,38.012052,32.534273,,
1602d,YUNUS EMRE CAMİ,,38.012057,32.534181,,
1603a,BOSNA KOMEK,,38.010915,32.531049,,
1603d,BOSNA KOMEK,,38.010926,32.531103,,
1604a,KEMERLİ,,38.0121,32.5264833,,
1604d,KEMERLİ,,38.0121083,32.5266417,,
1605a,BÜYÜK HİZMET,,38.008025,32.528675,,
1605d,BÜYÜK HİZMET,,38.0079417,32.5289084,,
1606a,NERGİZ,,38.0062,32.530075,,
1606d,NERGİZ,,38.00625,32.5302083,,
1609a,YEMENİ,,38.009237,32.532458,,
1609d,YEMENİ,,38.009294,32.532489,,
160a,SEYYAH,,37.822775,32.4252583,,
160d,SEYYAH,,37.82275,32.425375,,
1610a,MEVLEVİ,,38.0037667,32.5360833,,
1610d,MEVLEVİ,,38.0037667,32.5359667,,
1611a,HASİP,,38.002565,32.533411,,
1611d,HASİP,,38.002506,32.533449,,
1612a,HAKİKAT,,38.004157,32.531782,,
1613a,REYHAN,,38.0041667,32.5260083,,
1614a,NUR,,38.0068083,32.5240417,,
1615a,AKİF,,38.008975,32.523175,,
1616a,ÜMMÜ HABİBE,,37.993075,32.5909334,,
1616d,ÜMMÜ HABİBE,,37.992975,32.590675,,
1617a,ERTUĞRUL GAZİ İLKOKULU,,38.0075667,32.5355833,,
1617d,ERTUĞRUL GAZİ İLKOKULU,,38.0074833,32.535725,,
1618a,SÜMEYYE,,38.0103834,32.5356166,,
1618d,SÜMEYYE,,38.010425,32.5357333,,
1619a,ŞENAY,,38.01385,32.5356333,,
1619d,ŞENAY,,38.0138083,32.5357417,,
161a,ANTİK,,37.8203,32.4267583,,
161d,ANTİK,,37.82015,32.4269083,,
1620a,IŞIKLAR,,38.0020417,32.526225,,
1620d,IŞIKLAR,,38.0020833,32.5265,,
1621a,ÜNALDI,,37.999375,32.5264,,
1621d,ÜNALDI,,37.9990583,32.5266167,,
1622a,YÜZERLER,,37.9955916,32.525375,,
1622d,YÜZERLER,,37.9949917,32.5249917,,
1623a,ÇELİKELLER,,37.99096333840022,32.52307713031769,,
1623d,ÇELİKELLER,,37.99092,32.52335,,
1624a,ENSAR,,38.0036417,32.5294834,,
1624d,ENSAR,,38.0035416,32.5295083,,
1625a,GÜLBAHÇE,,37.983899,32.523132,,
1625d,GÜLBAHÇE,,37.983881,32.523343,,
1626a,JAPON PARKI,,37.9798667,32.5200833,,
1626d,JAPON PARKI,,37.9799083,32.5203083,,
1627a,İFTİHAR,,37.9772083,32.5201083,,
1627d,İFTİHAR,,37.9772167,32.52035,,
1628a,GÜRŞAHİN,,37.948083,32.541149,,
1628d,GÜRŞAHİN,,37.948352,32.541122,,
1629a,ORUÇ REİS,,37.8893083,32.48316,,
1629d,ORUÇ REİS,,37.8892083,32.48316,,
162a,GÜLDİKEN,,37.818414,32.428411,,
162d,GÜLDİKEN,,37.81845,32.428486,,
1630a,MADEN YOLU,,37.89055,32.48498,,
1630d,MADEN YOLU,,37.8904583,32.48494,,
1631a,DARIKAPISI,,37.8920416,32.48717,,
1631d,DARIKAPISI,,37.8919917,32.48722,,
1632a,MANAVLI,,37.8942334,32.48678,,
1632d,MANAVLI,,37.8944,32.48687,,
1633a,SELÇUKLU LİSESİ,,37.8964583,32.48568,,
1633d,SELÇUKLU LİSESİ,,37.8963083,32.48586,,
1634d,MEHTERAN,,37.899552,32.488637,,
1635a,ADAKLI,,37.900165,32.48683,,
1635d,ADAKLI,,37.9006083,32.48681,,
1636a,FATİH CAMİ,,37.9007667,32.48352,,
1636d,FATİH CAMİ,,37.9010667,32.48397,,
1637a,SELÇUKLU NÜFUS MÜDÜRLÜĞÜ,,37.901225,32.47996,,
1637d,SELÇUKLU NÜFUS MÜDÜRLÜĞÜ,,37.901375,32.48014,,
1638a,KONYA İL ÖZEL İDARE,,37.93894,32.511662,,
1638d,KONYA İL ÖZEL İDARE,,37.93894,32.511266,,
1639a,ZEMBİL,,37.902958,32.476185,,
1639d,ZEMBİL,,37.903027,32.476289,,
163a,TOKALI,,37.8188166,32.43095,,
163d,TOKALI,,37.818875,32.4310166,,
1640a,İLYAS,,37.9052917,32.47707,,
1640d,İLYAS,,37.9051334,32.47715,,
1641a,ÖZALKENT MEVLANA CAMİ,,37.9076417,32.47538,,
1641d,ÖZALKENT MEVLANA CAMİ,,37.9076916,32.47555,,
1642a,SAFA,,37.9096917,32.4721083,,
1642d,SAFA,,37.90961,32.47257,,
1643a,22 NOLU SAĞLIK OCAĞI,,37.9102833,32.47648,,
1643d,22 NOLU SAĞLIK OCAĞI,,37.91025,32.47611,,
1644a,ERÇEVİK,,37.908725,32.47922,,
1644d,ERÇEVİK,,37.908575,32.47906,,
1645a,DÜŞÜNCE,,37.9062583,32.48204,,
1645d,DÜŞÜNCE,,37.9060584,32.48179,,
1646a,AKBULUT,,37.904228,32.483648,,
1646d,AKBULUT,,37.904417,32.483814,,
1647a,GÜNYÜZÜ,,37.902794,32.485069,,
1647d,GÜNYÜZÜ,,37.902842,32.485359,,
1648a,HALIÖREN,,37.904425,32.48759,,
1648d,HALIÖREN,,37.904112,32.487677,,
1649d,UHUD CAMİ,,37.90605,32.49025,,
164a,SAPANDAĞI,,37.81955,32.43365,,
164d,SAPANDAĞI,,37.8195917,32.4337083,,
1650d,İSKAN,,37.9079,32.4892833,,
1651a,AYDINLIKEVLER CAMİ,,37.910397,32.489854,,
1652a,İSTASYON,,37.8665166,32.47842,,
1652d,İSTASYON,,37.866575,32.47843,,
1653a,ASYA,,37.853264,32.665544,,
1653d,ASYA,,37.853507,32.665593,,
1654a,METANET,,37.880979,32.453926,,
1654d,METANET,,37.881816,32.454288,,
1655a,BAŞKENT HASTANESİ,,37.88383,32.457483,,
1655d,BAŞKENT HASTANESİ,,37.883908,32.4571,,
1656a,NOVOTEL,,37.886235,32.460013,,
1656d,NOVOTEL,,37.886397,32.460785,,
1657a,İNCEDERE,,37.899477,32.451874,,
1657d,İNCEDERE,,37.899556,32.45188,,
1658a,EŞREFOĞLU İLKOKULU,,37.8894917,32.464775,,
1658d,EŞREFOĞLU İLKOKULU,,37.8897417,32.4645583,,
1659a,BOYALI,,37.89065,32.46785,,
1659d,BOYALI,,37.8909333,32.46775,,
165a,TOPRAKLIK,,37.8171417,32.434225,,
165d,TOPRAKLIK,,37.8171083,32.4343667,,
1660a,ESKİ SİLLE CD,,37.89135,32.4718166,,
1660d,ESKİ SİLLE CD,,37.8916667,32.4719,,
1661a,MAHMUT SAMİ RAMAZANOĞLU İHL,,37.894625,32.481075,,
1661d,MAHMUT SAMİ RAMAZANOĞLU İHL,,37.894825,32.480775,,
1662a,KONEVİ LİSESİ,,37.8973916,32.4843583,,
1662d,KONEVİ LİSESİ,,37.89775,32.4843167,,
1663a,MUKADDEMİ,,37.886082,32.479238,,
1663d,MUKADDEMİ,,37.886168,32.479152,,
1664a,NECMETTİN ERBAKAN PARKI,,37.878075,32.48652,,
1665d,MALİYE,,37.8761834,32.48488,,
1666a,ULUŞAHİN,,37.877041,32.4826,,
1666d,ULUŞAHİN,,37.87705,32.482713,,
1667a,15 TEMMUZ ŞEHİTLER İLKOKULU,,37.8842916,32.4766333,,
1667d,15 TEMMUZ ŞEHİTLER İLKOKULU,,37.884125,32.4765917,,
1668a,FAHRETTİN AYAZ,,37.862298,32.477215,,
1668d,FAHRETTİN AYAZ,,37.862329,32.477015,,
1669a,İBRAHİM MÜTEFERRİKA,,37.8800333,32.47815,,
1669d,İBRAHİM MÜTEFERRİKA,,37.880143,32.478391,,
166a,ÇAYIRLI,,37.830775,32.431275,,
166d,ÇAYIRLI,,37.8306083,32.4315417,,
1670a,KİBRİT CAMİ,,37.8821833,32.47368,,
1670d,KİBRİT CAMİ,,37.8819917,32.47359,,
1671a,ŞEFİKCAN,,37.8833917,32.47083,,
1671d,ŞEFİKCAN,,37.8832583,32.47064,,
1672a,ALEMDAR SULTAN CAMİ,,37.885825,32.46464,,
1672d,ALEMDAR SULTAN CAMİ,,37.885975,32.46482,,
1673a,UZUNPINAR,,37.8888083,32.46011,,
1673d,UZUNPINAR,,37.8888834,32.46038,,
1674a,KALEMOĞLU,,37.8932334,32.46125,,
1674d,KALEMOĞLU,,37.8928334,32.46142,,
1675a,ARIBURUN,,37.89535,32.46193,,
1675d,ARIBURUN,,37.89535,32.46222,,
1676a,ERMEK,,37.8983083,32.46284,,
1676d,ERMEK,,37.89825,32.46312,,
1677a,14 NOLU SAĞLIK OCAĞI,,37.9012083,32.46427,,
1677d,14 NOLU SAĞLIK OCAĞI,,37.9010583,32.46446,,
1678a,RAUF DENKTAŞ,,37.8826917,32.48724,,
1678d,RAUF DENKTAŞ,,37.88285,32.48733,,
1679a,ERAYDIN,,37.8864583,32.48231,,
1679d,ERAYDIN,,37.8865333,32.4825,,
167a,EKİNCİ,,37.828814,32.43332,,
167d,EKİNCİ,,37.828843,32.433475,,
1680a,OTLUKBELİ,,37.8888083,32.48045,,
1680d,OTLUKBELİ,,37.8887,32.48103,,
1681a,BÜYÜKBAYRAM ORTAOKULU,,37.890725,32.47776,,
1681d,BÜYÜKBAYRAM ORTAOKULU,,37.8909917,32.47785,,
1682a,YEDİTEPE,,37.8938417,32.47621,,
1682d,YEDİTEPE,,37.8944417,32.47576,,
1683a,GÖKÇEDAĞ,,37.897325,32.47163,,
1683d,GÖKÇEDAĞ,,37.8972583,32.47206,,
1684a,SALKIM,,37.8987417,32.46976,,
1684d,SALKIM,,37.8993084,32.46942,,
1685a,ARİF,,37.901225,32.46628,,
1685d,ARİF,,37.9013617,32.46666,,
1686a,TİMURTAŞ,,37.9038583,32.46299,,
1686d,TİMURTAŞ,,37.9043417,32.46275,,
1687a,GÜNLÜK,,37.905626,32.460565,,
1687d,GÜNLÜK,,37.905621,32.460929,,
1688a,TERTİP,,37.908593,32.456727,,
1688d,TERTİP,,37.90866,32.456853,,
1689a,BEŞERLER CAMİ,,37.911423,32.45412,,
1689d,BEŞERLER CAMİ,,37.911478,32.454287,,
168a,SAĞLAMTAŞ,,37.825825,32.4347417,,
168d,SAĞLAMTAŞ,,37.825775,32.4348917,,
1690a,ERENKÖY HAREKET MERKEZİ,,37.913601,32.451705,,
1690d,ERENKÖY HAREKET MERKEZİ,,37.914159,32.451206,,
1691a,PETEKTE,,37.91585,32.44572,,
1691d,PETEKTE,,37.9159583,32.44587,,
1692a,KARYAĞAR,,37.9150083,32.448325,,
1692d,KARYAĞAR,,37.915125,32.4486,,
1693a,TED KOLEJİ,,37.9258833,32.43645,,
1693d,TED KOLEJİ,,37.9259,32.43656,,
1694a,KARLIDERE,,37.927225,32.43418,,
1694d,KARLIDERE,,37.9273,32.43425,,
1695a,DARİBEKA,,37.9283333,32.42972,,
1695d,DARİBEKA,,37.928375,32.42981,,
1696a,SİLLE MEZARLIĞI,,37.9288,32.42603,,
1696d,SİLLE MEZARLIĞI,,37.9288666,32.42602,,
1697a,SİLLE HALK KÜTÜPHANESİ,,37.927519,32.422422,,
1697d,SİLLE HALK KÜTÜPHANESİ,,37.927619,32.42242,,
1698a,SİLLE,,37.927075,32.419457,,
1698d,SİLLE,,37.927149,32.419425,,
1699a,SİLLE ÇAY CAMİ,,37.925999,32.417464,,
1699d,SİLLE ÇAY CAMİ,,37.926099,32.417464,,
169a,EYNESLİ,,37.8240917,32.4365083,,
169d,EYNESLİ,,37.8240167,32.43665,,
16a,KIZILAY HASTANESİ,,37.866343,32.497633,,
16d,KIZILAY HASTANESİ,,37.866419,32.4983954,,
1700a,SİLLE SON DURAK,,37.926413,32.414305,,
1700d,SİLLE SON DURAK,,37.926453,32.414336,,
1701a,SİLLE BARAJİ,,37.931725,32.401875,,
1701d,SİLLE BARAJİ,,37.9314334,32.40175,,
1702a,BARAJ,,37.94126,32.380409,,
1702d,BARAJ,,37.94126,32.380509,,
1703a,TATKÖY BARAJ,,37.9441167,32.3775666,,
1703d,TATKÖY BARAJ,,37.9441167,32.3773666,,
1704a,BARAJ 2,,37.9463083,32.3754083,,
1704d,BARAJ 2,,37.9463,32.37535,,
1705a,16452. SK,,37.9499916,32.3731833,,
1705d,16452. SK,,37.9499916,32.3730833,,
1706a,TATKÖY YOL AYRIMI,,37.95255,32.3705417,,
1706d,TATKÖY YOL AYRIMI,,37.9526084,32.3703917,,
1707a,BARAJ 1,,37.9532666,32.3673667,,
1707d,BARAJ 1,,37.9532167,32.3673416,,
1708a,TATKÖY İLKOKULU,,37.9545417,32.365225,,
1708d,TATKÖY İLKOKULU,,37.9545417,32.3650667,,
1709a,TATKÖY SON DURAK,,37.9545167,32.3623916,,
1709d,TATKÖY SON DURAK,,37.9544583,32.3623417,,
170a,ÇALIKLI GİRİŞİ,,37.8225583,32.4373833,,
170d,ÇALIKLI GİRİŞİ,,37.8225,32.4375583,,
1710a,TATKÖY KUMOCAĞI,,37.9393417,32.3919917,,
1710d,TATKÖY KUMOCAĞI,,37.9395,32.3921583,,
1711a,PALAMUT,,37.919225,32.44126,,
1711d,PALAMUT,,37.919225,32.44136,,
1712a,NİHAT,,37.9223,32.43796,,
1712d,NİHAT,,37.9222833,32.43807,,
1713a,TERZİOĞLU CAMİ,,37.916025,32.45105,,
1713d,TERZİOĞLU CAMİ,,37.916075,32.45102,,
1714a,ŞEHİT MUSTAFA ÇALIŞIR,,37.9172083,32.45338,,
1714d,ŞEHİT MUSTAFA ÇALIŞIR,,37.9172417,32.45338,,
1715a,HİRA 1,,37.9185083,32.4557,,
1715d,HİRA 1,,37.9184917,32.4556,,
1716a,SONGÜL,,37.920425,32.45454,,
1716d,SONGÜL,,37.92065,32.4549,,
1717a,DİNAMİK,,37.922528,32.457233,,
1717d,DİNAMİK,,37.922437,32.457292,,
1718a,TUTKUN 1,,37.923842,32.45475,,
1718d,TUTKUN 1,,37.923869,32.454814,,
1719a,DAVET,,37.9197417,32.45823,,
1719d,DAVET,,37.9197667,32.45825,,
171a,AHMET HAŞHAŞ İLKOKULU,,37.8210083,32.4393584,,
171d,AHMET HAŞHAŞ İLKOKULU,,37.821,32.439425,,
1720a,SEFA YOLU,,37.918781,32.460747,,
1720d,SEFA YOLU,,37.918855,32.460672,,
1721a,NURCAN AKPINAR İLKOKULU,,37.918832,32.463676,,
1721d,NURCAN AKPINAR İLKOKULU,,37.918822,32.463767,,
1722a,SİNEM,,37.911301,32.4583,,
1722d,SİNEM,,37.911397,32.458128,,
1723a,GÜZEL SANATLAR LİSESİ,,37.914499,32.462422,,
1723d,GÜZEL SANATLAR LİSESİ,,37.914529,32.462387,,
1724a,GÜROĞLU,,37.916549,32.464116,,
1724d,GÜROĞLU,,37.91661,32.463968,,
1725a,3. MEHMED,,37.918528,32.46587,,
1725d,3. MEHMED,,37.918648,32.465763,,
1726a,BABACAN,,37.9172583,32.46919,,
1726d,BABACAN,,37.9171683,32.46929,,
1727a,VASIL,,37.914675,32.46681,,
1727d,VASIL,,37.9145917,32.46686,,
1728a,TAHİR HOCA CAMİ,,37.911221,32.466101,,
1728d,TAHİR HOCA CAMİ,,37.911245,32.466145,,
1729a,17349. SK,,37.734496,32.466165,,
172a,SARIYAYLA,,37.824375,32.439925,,
172d,SARIYAYLA,,37.82445,32.439975,,
1730a,DEKOR,,37.9089333,32.46632,,
1730d,DEKOR,,37.9089417,32.46646,,
1731a,AYNUR,,37.906625,32.46711,,
1731d,AYNUR,,37.906575,32.46729,,
1732a,GÜLREVAN,,37.9061333,32.47144,,
1732d,GÜLREVAN,,37.906075,32.47156,,
1733a,GENÇ DOKTORLAR,,37.904125,32.47331,,
1733d,GENÇ DOKTORLAR,,37.904125,32.47339,,
1734a,MECAZ,,37.9016083,32.47513,,
1734d,MECAZ,,37.901775,32.47513,,
1735a,NEVİN,,37.900225,32.476125,,
1735d,NEVİN,,37.9001583,32.4763417,,
1736a,TEKBİR,,37.89951,32.480038,,
1736d,TEKBİR,,37.899525,32.479952,,
1737a,KÖŞK,,37.8963667,32.47947,,
1737d,KÖŞK,,37.89655,32.47943,,
1738a,ŞEHİT UFUK BAŞARI ASM,,37.9041183,32.45845,,
1738d,ŞEHİT UFUK BAŞARI ASM,,37.9041583,32.45839,,
1739a,SEYYİD,,37.902075,32.45673,,
1739d,SEYYİD,,37.902125,32.45669,,
1740a,KINATAŞ,,37.899175,32.45474,,
1740d,KINATAŞ,,37.8991,32.45463,,
1741a,RAHAT,,37.8962917,32.45289,,
1741d,RAHAT,,37.896275,32.45281,,
1742a,HOCACİHAN İHL,,37.8934917,32.45041,,
1742d,HOCACİHAN İHL,,37.8935,32.45033,,
1743a,ŞEHİT FETHİ SEKİN LİSESİ,,37.758446,32.509558,,
1743d,ŞEHİT FETHİ SEKİN LİSESİ,,37.758512,32.509526,,
1744a,FARABİ CD,,37.759147,32.506489,,
1744d,FARABİ CD,,37.759136,32.506575,,
1745a,İREM,,37.8977583,32.44548,,
1745d,İREM,,37.8977083,32.44546,,
1746a,ÖZENMİŞ,,37.899482,32.447577,,
1746d,ÖZENMİŞ,,37.89948,32.447674,,
1747a,ARAFAT CAMİ,,37.9011833,32.45088,,
1747d,ARAFAT CAMİ,,37.9013,32.45122,,
1748a,BARUT,,37.9044333,32.45133,,
1748d,BARUT,,37.9044333,32.4515999,,
1749a,SABIRHANE,,37.906889,32.451886,,
1749d,SABIRHANE,,37.906787,32.452079,,
174a,BATIHAN,,37.8274583,32.4409417,,
174d,BATIHAN,,37.8274583,32.4408417,,
1750a,ÖRGÜ,,37.9090083,32.45094,,
1751a,TEMİZER,,37.910625,32.45268,,
1752a,AMİNE,,37.761641,32.506275,,
1752d,AMİNE,,37.761626,32.506377,,
1753a,MEHMET AKDOĞAN ORTAOKULU,,37.892468,32.470736,,
1753d,MEHMET AKDOĞAN ORTAOKULU,,37.892593,32.470666,,
1754a,MEHMET DALAN CAMİ,,37.891274,32.466165,,
1754d,MEHMET DALAN CAMİ,,37.89134,32.466133,,
1755a,KOYUNCULAR,,37.8921417,32.462775,,
1755d,KOYUNCULAR,,37.8921833,32.46295,,
1756a,DEMİRBİLEK,,37.892945,32.459181,,
1756d,DEMİRBİLEK,,37.892951,32.459594,,
1757a,YENİYOL,,37.8961417,32.46089,,
1757d,YENİYOL,,37.8961666,32.46095,,
1758a,KANUNİ SULTAN SÜLEYMAN ORTAOKULU,,37.8987166,32.45807,,
1758d,KANUNİ SULTAN SÜLEYMAN ORTAOKULU,,37.8987417,32.4581,,
1759a,TOZLUKBELİ,,37.900725,32.45942,,
1759d,TOZLUKBELİ,,37.900625,32.45936,,
175a,CANBAZLAR,,37.8295083,32.4378083,,
175d,CANBAZLAR,,37.8295083,32.4377083,,
1760a,BİNGÖL,,37.901322,32.46225,,
1760d,BİNGÖL,,37.901387,32.462271,,
1761a,NEFİR,,37.8775667,32.47253,,
1761d,NEFİR,,37.8776583,32.47251,,
1762a,SIRMAKEŞ,,37.878775,32.47006,,
1762d,SIRMAKEŞ,,37.878825,32.47003,,
1763a,MEHMET AKİF CAMİ,,37.880431,32.466368,,
1763d,MEHMET AKİF CAMİ,,37.88052,32.466427,,
1764a,KARGI,,37.882001,32.463374,,
1764d,KARGI,,37.882062,32.463438,,
1766a,TEKKE MEZARLIĞI,,37.883307,32.46062,,
1766d,TEKKE MEZARLIĞI,,37.883371,32.460666,,
1767d,BAŞKENT HASTANESİ ACİL,,37.8847916,32.45715,,
1768a,SEZAİ,,37.8853834,32.4543167,,
1768d,SEZAİ,,37.8855667,32.4543,,
1769a,DEDELER,,37.886633,32.451086,,
1769d,DEDELER,,37.886724,32.451129,,
176a,BAKIRDAĞI,,37.8308583,32.4362583,,
176d,BAKIRDAĞI,,37.830875,32.4361083,,
1770a,ŞEHİTLER CAMİ,,37.888364,32.448082,,
1770d,ŞEHİTLER CAMİ,,37.888417,32.448194,,
1771a,CİHAN,,37.8837833,32.4447,,
1771d,CİHAN,,37.883865,32.444874,,
1772a,AĞIRSU,,37.88075,32.44387,,
1773a,FAZLI,,37.8829667,32.4395583,,
1773d,FAZLI,,37.8828666,32.439425,,
1774a,TATMİNKAR,,37.885966,32.439204,,
1774d,TATMİNKAR,,37.885995,32.438914,,
1775a,HAZAL,,37.664858,32.598354,,
1775d,HAZAL,,37.665218,32.598425,,
1776a,BANKET,,37.883257,32.433448,,
1777a,CİVAN,,37.88725,32.43466,,
1778a,SEYFULLAH CAMİ,,37.8898833,32.43678,,
1779a,YURTSEVEN,,37.892375,32.44006,,
1779d,YURTSEVEN,,37.892425,32.44006,,
177a,YERLEŞEN,,37.8328917,32.4349917,,
177d,YERLEŞEN,,37.8328583,32.4349084,,
1780a,AZAM,,37.890525,32.4440167,,
1780d,AZAM,,37.8906167,32.4441667,,
1782a,EDEBALI,,37.88447,32.45454,,
1782d,EDEBALI,,37.88445,32.45458,,
1783a,HEKİMBAŞI,,37.8825417,32.45174,,
1783d,HEKİMBAŞI,,37.8826,32.45178,,
1784a,TAŞBURUN,,37.890826,32.448422,,
1784d,TAŞBURUN,,37.890692,32.448538,,
1785a,MANTAR,,37.88264,32.44914,,
1785d,MANTAR,,37.8826,32.44915,,
1787a,11 NOLU SAĞLIK OCAĞI,,37.8865833,32.44537,,
1787d,11 NOLU SAĞLIK OCAĞI,,37.886374,32.445448,,
1788a,DERESUYU,,37.88822,32.4564,,
1788d,DERESUYU,,37.88826,32.45624,,
1789a,PINAR,,37.922742,32.455304,,
1789d,PINAR,,37.922817,32.455317,,
178a,ÇAVUŞLAR,,37.829425,32.4495917,,
178d,ÇAVUŞLAR,,37.8294583,32.4496917,,
1790a,HOCACİHAN KUBA CAMİ,,37.89035,32.4419417,,
1790d,HOCACİHAN KUBA CAMİ,,37.890525,32.441925,,
1791a,ALAYBEYİ,,37.89355,32.44113,,
1791d,ALAYBEYİ,,37.8935917,32.44124,,
1792a,EVLİYALAR,,37.8950667,32.43943,,
1792d,EVLİYALAR,,37.895,32.43948,,
1793a,ALTINOK,,37.8962667,32.44148,,
1793d,ALTINOK,,37.89625,32.44147,,
1794a,ÖZYER,,37.8938833,32.4339333,,
1794d,ÖZYER,,37.893775,32.4338,,
1795a,SARAYKÖY,,37.9017083,32.4055333,,
1795d,SARAYKÖY,,37.9016834,32.4053833,,
1796a,RAHMAN CAMİ,,37.9021417,32.4019917,,
1796d,RAHMAN CAMİ,,37.9020083,32.4019584,,
1797a,13193. SK,,37.8992667,32.4001834,,
1797d,13193. SK,,37.8990584,32.400175,,
1798a,SARAYKÖY MERKEZ,,37.8977334,32.3995,,
1798d,SARAYKÖY MERKEZ,,37.8976917,32.3996,,
1799a,13206. SK,,37.9131917,32.3773166,,
1799d,13206. SK,,37.91315,32.3773333,,
179a,ORTA CAMİ,,37.827475,32.4534917,,
179d,ORTA CAMİ,,37.8275833,32.4535,,
17a,İL MİLLİ EĞİTİM MÜDÜRLÜĞÜ,,37.8655167,32.50088,,
1800a,SARAYKÖY MEZARLIĞI,,37.9139833,32.37455,,
1800d,SARAYKÖY MEZARLIĞI,,37.9139916,32.374325,,
1801a,NEZAKETLİ,,37.8935583,32.4734917,,
1801d,NEZAKETLİ,,37.8937917,32.4736916,,
1802a,KETENCİLER SANAYİ,,37.96518,32.6521,,
1802d,KETENCİLER SANAYİ,,37.9647,32.65218,,
1803a,SARAYKÖY YOLU,,37.900432,32.410343,,
1803d,SARAYKÖY YOLU,,37.900645,32.410064,,
1804a,KONYA GIDA VE TARIM ÜNİVERSİTESİ,,37.876025,32.47491,,
1804d,KONYA GIDA VE TARIM ÜNİVERSİTESİ,,37.876175,32.47496,,
1805a,HAŞMETLİ,,37.8767166,32.47243,,
1805d,HAŞMETLİ,,37.8769083,32.47264,,
1806a,KONYA ŞEKER FABRİKASI,,37.8772833,32.46913,,
1806d,KONYA ŞEKER FABRİKASI,,37.8774583,32.46917,,
1807a,GÖKTÜRKLER,,37.8780833,32.46402,,
1807d,GÖKTÜRKLER,,37.878275,32.46408,,
1808a,CENNET PINAR,,37.8785167,32.46113,,
1808d,CENNET PINAR,,37.8787,32.46122,,
1809a,HACIKÖY,,37.879375,32.45586,,
1809d,HACIKÖY,,37.87955,32.45596,,
180a,ZAFER 2,,37.8269,32.4560167,,
180d,ZAFER 2,,37.82695,32.4560834,,
1810a,VİŞNELİ,,37.87975,32.449686,,
1810d,VİŞNELİ,,37.880023,32.449707,,
1811a,BAŞAKÇI,,37.8798083,32.4464417,,
1811d,BAŞAKÇI,,37.88005,32.4467,,
1812a,KOCAKENT,,37.8798666,32.4429666,,
1812d,KOCAKENT,,37.8801084,32.4429583,,
1813a,UYGUR,,37.880857,32.43856,,
1813d,UYGUR,,37.881024,32.438715,,
1814a,PEKŞENLER,,37.8817167,32.4353,,
1814d,PEKŞENLER,,37.88201,32.4348,,
1815a,DEFTERCİ,,37.879871,32.431404,,
1815d,DEFTERCİ,,37.880242,32.43134,,
1816a,ESKİ MERAM TIP,,37.8774583,32.4300583,,
1816d,ESKİ MERAM TIP,,37.8777167,32.429975,,
1817a,ARITMA TESİSLERİ,,37.87437,32.428457,,
1817d,ARITMA TESİSLERİ,,37.874257,32.428061,,
1818a,ÇIĞLI,,37.870375,32.4258583,,
1818d,ÇIĞLI,,37.8704417,32.4257667,,
1819a,GÖKÇEYER,,37.8680417,32.424825,,
1819d,GÖKÇEYER,,37.8681667,32.4245333,,
181a,ŞENSESLİ,,37.825575,32.460325,,
181d,ŞENSESLİ,,37.82565,32.4603833,,
1820a,DEMEÇ,,37.8653333,32.425375,,
1820d,DEMEÇ,,37.8655333,32.425225,,
1821a,HUZUREVİ,,37.862418,32.424688,,
1821d,HUZUREVİ,,37.862327,32.424709,,
1822a,BAŞKALAYCILAR,,37.85935,32.423009,,
1822d,BAŞKALAYCILAR,,37.859314,32.422907,,
1823a,KÖYCEĞİZ,,37.8575609,32.421898,,
1823d,KÖYCEĞİZ,,37.857503,32.421968,,
1824a,KÖYCEĞİZ MEZARLIĞI,,37.856648,32.419452,,
1824d,KÖYCEĞİZ MEZARLIĞI,,37.856726,32.419399,,
1825a,BOLVADİN,,37.855733,32.416958,,
1825d,BOLVADİN,,37.855803,32.416909,,
1826a,MEDET,,37.855724,32.412199,,
1826d,MEDET,,37.855769,32.412135,,
1827a,DERE,,37.855925,32.4088083,,
1827d,DERE,,37.855943,32.408789,,
1828a,DERE CUMHURİYET İLKOKULU,,37.856746,32.405888,,
1829a,MERAM PTT,,37.857154,32.401044,,
182a,TAŞ,,37.824444,32.463513,,
182d,TAŞ,,37.824466,32.463546,,
1830a,SARAYLI,,37.9054083,32.39565,,
1830d,SARAYLI,,37.905425,32.3957583,,
1831a,TEPEHAN,,37.858306,32.397753,,
1832a,SESLİKAYA,,37.857846,32.397753,,
1833a,AŞIKLAR CAMİ,,37.856779,32.391562,,
1834a,ELEKTRİK,,37.855455,32.390091,,
1835a,ÇATIKKAŞ,,37.854761,32.388391,,
183a,ANTALYA ÇEVRE YOLU,,37.8243083,32.4662,,
183d,ANTALYA ÇEVRE YOLU,,37.8245917,32.466125,,
1842a,KONYA DEDEMLİ MAH. 1,,37.65258,32.601965,,
1843a,KONYA DEDEMLİ MAH. 2,,37.650998,32.599501,,
1844a,KONYA DEDEMLİ MAH. 3,,37.647664,32.601731,,
1845a,KONYA DEDEMLİ MAH. 4,,37.648094,32.604977,,
1846a,KONYA DEDEMLİ MAH. 5,,37.648734,32.608168,,
1847a,KONYA DEDEMLİ MAH. 6,,37.654133,32.60446,,
1848a,KONYA DEDEMLİ MAH. 7,,37.656389,32.602942,,
1849a,KONYA ÇUMRA YOLU 1,,37.658837,32.602248,,
1849d,KONYA ÇUMRA YOLU 1,,37.658953,32.602625,,
184a,ŞEREFLER,,37.825675,32.4694833,,
184d,ŞEREFLER,,37.825985,32.4693633,,
1850a,KONYA ÇUMRA YOLU 2,,37.662994,32.599573,,
1850d,KONYA ÇUMRA YOLU 2,,37.663076,32.599825,,
1851a,KONYA ÇUMRA YOLU 3,,37.667364,32.596659,,
1851d,KONYA ÇUMRA YOLU 3,,37.667444,32.597035,,
1852a,HASBU ,,37.809929,32.493357,,
1852d,HASBU ,,37.809867,32.49325,,
1853a,HALİL İBRAHİM KILIÇ CAMİ,,37.81328,32.490289,,
1853d,HALİL İBRAHİM KILIÇ CAMİ,,37.813206,32.490224,,
1854a,SARAYKÖY İMAM AZAM CAMİ,,37.898341,32.405729,,
1854d,SARAYKÖY İMAM AZAM CAMİ,,37.898436,32.405622,,
1855a,CEMEL ALİ DEDE TÜRBESİ,,37.8554333,32.4236166,,
1855d,CEMEL ALİ DEDE TÜRBESİ,,37.855361,32.423716,,
1856a,NİĞDE,,37.8550333,32.4208333,,
1856d,NİĞDE,,37.854994,32.420814,,
1857a,GAZETECİ,,37.8548,32.4184166,,
1857d,GAZETECİ,,37.854799,32.418379,,
1858a,DERE CD,,37.8556334,32.41395,,
1858d,DERE CD,,37.855614,32.413878,,
185a,KOZAN,,37.8262166,32.4585334,,
185d,KOZAN,,37.8262334,32.4586833,,
1861a,GÖRKEM,,38.028215,32.488277,,
1861d,GÖRKEM,,38.028285,32.488218,,
1862a,ÖZCAN,,37.8983517,32.4485,,
1862d,ÖZCAN,,37.8981033,32.4485,,
1863a,SOSYAL,,37.8956083,32.4448083,,
1863d,SOSYAL,,37.895265,32.444775,,
1864a,BATARYA,,37.892525,32.442425,,
1864d,BATARYA,,37.89235,32.4427833,,
1865a,SADIK,,37.994175,32.5144,,
1865d,SADIK,,37.9944833,32.5142167,,
1866a,ALEMDAR PARK,,37.9094333,32.454325,,
1866d,ALEMDAR PARK,,37.90934243728118,32.454487178474665,,
1867a,FİZİK TEDAVİ HST,,37.993536,32.483759,,
1867d,FİZİK TEDAVİ HST,,37.993598,32.4839,,
1868a,AKIL VE RUH SAĞLIĞI HASTANESİ,,37.99009,32.47935,,
1868d,AKIL VE RUH SAĞLIĞI HASTANESİ,,37.989975,32.47935,,
1869a,ÜFTADE,,37.9592167,32.5292883,,
186d,BİTKİ,,37.8258583,32.4666583,,
1870a,KARABÜK,,37.9587417,32.5334417,,
1871a,EBU MÜSLİM,,37.9563333,32.5368584,,
1872a,GAMZELİ YÜZ,,37.9527166,32.5386916,,
1873a,OSMAN DEMİR İLKOKULU,,37.953825,32.5256917,,
1874a,BÜYÜKŞAHİN,,37.9454,32.5204666,,
1874d,BÜYÜKŞAHİN,,37.9452083,32.520625,,
1875a,ZAFER SANAYİ,,37.94155,32.5230166,,
1875d,ZAFER SANAYİ,,37.9414,32.5233417,,
1876a,TIRSAN SANAYİ,,37.9361583,32.524675,,
1876d,TIRSAN SANAYİ,,37.9360084,32.524875,,
1877a,SELÇUKLU CAMİ,,37.9323417,32.524425,,
1877d,SELÇUKLU CAMİ,,37.9319583,32.5245417,,
1878a,HACILAR,,37.9286417,32.5225083,,
1878d,HACILAR,,37.928525,32.5225417,,
1879a,HASKON,,37.925375,32.5194083,,
1879d,HASKON,,37.925075,32.5194917,,
1880a,İSTİKAMET,,37.9219584,32.5162416,,
1880d,İSTİKAMET,,37.9218166,32.5164333,,
1881a,ÇAMAN,,37.9188417,32.512875,,
1881d,ÇAMAN,,37.9186417,32.5129083,,
1882a,KONYA,,38.014227,32.534392,,
1882d,KONYA,,38.0142,32.534432,,
1883a,TEVHİD CAMİ,,37.8437583,32.4473084,,
1884a,FİZİK TEDAVİ ,,37.992742,32.484726,,
1884d,FİZİK TEDAVİ ,,37.992702,32.484796,,
1885a,AŞAĞI PINARBAŞI MEZARLIĞI,,38.0361167,32.59795,,
1886a,16714. SK,,38.039625,32.5978416,,
1887a,16752. SK,,38.043051,32.596473,,
1888a,16814. SK,,38.0473583,32.593625,,
1889a,16808. SK,,38.0489583,32.5964166,,
188a,KOCAMAN,,37.8295833,32.46195,,
188d,KOCAMAN,,37.829575,32.461925,,
1890a,YEŞİL BURSA,,37.8574167,32.6182917,,
1891a,14651. SK,,37.8003167,32.6617333,,
1892a,AKSARAY,,37.9537833,32.58125,,
1892d,AKSARAY,,37.9539833,32.5812,,
1893a,4. ORGANİZE GİRİŞİ,,37.9544333,32.5854667,,
1893d,4. ORGANİZE GİRİŞİ,,37.95465,32.5855083,,
1894a,418. SK,,37.9554417,32.591975,,
1894d,418. SK,,37.9556833,32.5919833,,
1895a,420. SK,,37.9568667,32.6013,,
1895d,420. SK,,37.9571334,32.6015666,,
1896a,AKSARAY D 300 YOLU,,37.9576667,32.6064417,,
1896d,AKSARAY D 300 YOLU,,37.9579,32.6064833,,
1897a,AKSARAY ÇEVRE YOLU,,37.960357,32.624384,,
1897d,AKSARAY ÇEVRE YOLU,,37.960687,32.624188,,
1898a,BORA,,37.857308,32.65017,,
1898d,BORA,,37.857416,32.65016,,
1899d,EREĞLİ YOLU HÜYÜK,,37.846409,32.725954,,
189a,NACİZANE,,37.8309417,32.457875,,
189d,NACİZANE,,37.8310667,32.4578833,,
18a,AYNA,,37.8625917,32.50069,,
1900a,HAMZAZADE,,37.8105417,32.51455,,
1900d,HAMZAZADE,,37.8105083,32.5144084,,
1905a,KARŞIKÖY,,37.9115517,32.4888917,,
1905d,KARŞIKÖY,,37.9116083,32.4891133,,
1906a,BAKIRTOLU GİRİŞİ,,37.793577,32.813462,,
1906d,BAKIRTOLU GİRİŞİ,,37.793399,32.813441,,
1907a,CEVRİDEDE,,37.8833583,32.4840917,,
1908a,ÇUMRA,,37.8803584,32.481825,,
1909a,MUHAFAZA,,37.93205,32.46655,,
1909d,MUHAFAZA,,37.9319,32.46665,,
190a,SAMURAY,,37.8341417,32.4595917,,
190d,SAMURAY,,37.8342417,32.459525,,
1910a,MERAL,,37.9297833,32.4665417,,
1910d,MERAL,,37.9296417,32.4666167,,
1911a,KORCAN,,37.926232,32.467973,,
1911d,KORCAN,,37.926256,32.468075,,
1912a,TALİP,,37.924613,32.472935,,
1912d,TALİP,,37.924768,32.472897,,
1914a,YENİ MERAM TIP,,37.88482,32.432718,,
1914d,YENİ MERAM TIP,,37.884745,32.432863,,
1917a,ÇEVRE YOLU 10,,37.9004,32.535925,,
1917d,ÇEVRE YOLU 10,,37.90031,32.53561,,
1918a,ÇEVRE YOLU 11,,37.9119084,32.523175,,
1918d,ÇEVRE YOLU 11,,37.9117,32.52295,,
1919a,REİSKÖY,,37.970723,32.612544,,
1919d,REİSKÖY,,37.970662,32.612404,,
191a,NARİNLİ,,37.8361083,32.461175,,
191d,NARİNLİ,,37.8363083,32.4611917,,
1920a,ORGANİZE MÜDÜRLÜĞÜ,,37.9745083,32.610825,,
1920d,ORGANİZE MÜDÜRLÜĞÜ,,37.974427,32.610666,,
1921a,EVRENKÖY 1,,37.978875,32.6087917,,
1921d,EVRENKÖY 1,,37.978712,32.608601,,
1922a,EVRENKÖY,,37.9823583,32.6071083,,
1922d,EVRENKÖY,,37.982216,32.606976,,
1923a,YÜKSELEN,,37.985175,32.604225,,
1923d,YÜKSELEN,,37.984986,32.604106,,
1924a,KAŞINHANI ALT GEÇİT,,37.7032333,32.5641833,,
1924d,KAŞINHANI ALT GEÇİT,,37.703208,32.564235,,
1925a,MENDERES,,37.701349,32.565171,,
1925d,MENDERES,,37.701411,32.565236,,
1926a,AKINCILAR PARKI,,37.902853,32.467104,,
1926d,AKINCILAR PARKI,,37.902952,32.466846,,
1927a,BEYAZSU,,37.901919,32.471595,,
1927d,BEYAZSU,,37.902157,32.471853,,
1928a,NAKIŞLI,,37.900108,32.473703,,
1928d,NAKIŞLI,,37.900193,32.473923,,
1929a,DAĞPINAR,,37.883214,32.509135,,
1929d,DAĞPINAR,,37.88329,32.509237,,
192a,PANEL,,37.8385993,32.4624248,,
192d,PANEL,,37.8384833,32.4623,,
1930a,ALİ ULVİ KURUCU,,37.8851447,32.505625,,
1930d,ALİ ULVİ KURUCU,,37.885225,32.5059,,
1931a,ŞAİR SENİHİ,,37.886708,32.502039,,
1931d,ŞAİR SENİHİ,,37.88671,32.502322,,
1932a,HACI FAİK,,37.933476,32.463773,,
1932d,HACI FAİK,,37.9335,32.463848,,
1933a,SABİT,,37.93656,32.465165,,
1933d,SABİT,,37.936566,32.465232,,
1934a,SEYFİ,,37.93908,32.463773,,
1934d,SEYFİ,,37.938932,32.464052,,
1935a,DEMİRKIRAN,,37.930922,32.477959,,
1935d,DEMİRKIRAN,,37.930905,32.47812,,
1936a,HISIM,,37.927862,32.478888,,
1936d,HISIM,,37.927996,32.478824,,
1937a,NAZ,,37.92974,32.481849,,
1937d,NAZ,,37.929807,32.481635,,
1938a,DOKUMALI,,37.93348,32.481956,,
1938d,DOKUMALI,,37.933446,32.481677,,
1939a,YAZLIK,,37.798425,32.513299,,
1939d,YAZLIK,,37.798229,32.513166,,
193a,KELLECİLER,,37.8480166,32.4662833,,
193d,KELLECİLER,,37.84815,32.46615,,
1940a,15294. SK,,37.77992,32.521398,,
1940d,15294. SK,,37.77996,32.521505,,
1941a,HANEFİ AYTEKİN İLKOKULU,,37.781424,32.526112,,
1941d,HANEFİ AYTEKİN İLKOKULU,,37.781412,32.526021,,
1942a,ALABAYIR,,37.783998,32.524911,,
1942d,ALABAYIR,,37.783989,32.524833,,
1943a,UĞURAY,,37.837057,32.480151,,
1943d,UĞURAY,,37.837161,32.480172,,
1944a,BAYRAMOĞLU,,37.95184,32.469214,,
1944d,BAYRAMOĞLU,,37.951785,32.469144,,
1945a,1. ABDÜLHAMİD,,37.966433,32.488688,,
1945d,1. ABDÜLHAMİD,,37.966576,32.488463,,
1947a,3. SELİM,,37.968865,32.490475,,
1947d,3. SELİM,,37.969041,32.490149,,
1948a,4. MUSTAFA,,37.972365,32.493029,,
1948d,4. MUSTAFA,,37.972491,32.492826,,
1949a,2. MAHMUD,,37.977128,32.493276,,
1949d,2. MAHMUD,,37.977041,32.492973,,
194a,HAYDAR EFENDİ CAMİ,,37.850125,32.465475,,
194d,HAYDAR EFENDİ CAMİ,,37.8500417,32.4653583,,
1950a,MESCİDİ AKSA,,37.852345,32.472433,,
1950d,MESCİDİ AKSA,,37.852353,32.47228,,
1951a,ALBAYRAK,,37.954539,32.469522,,
1951d,ALBAYRAK,,37.954675,32.469574,,
1952a,İNAYET CAMİ,,37.846702,32.476206,,
1953a,CAMİKEBİR,,37.858306,32.399078,,
1954a,YEŞİL YAZI CAMİ,,37.794569,32.517094,,
1954d,YEŞİL YAZI CAMİ,,37.794586,32.517004,,
1955a,BÜYÜKÇİÇEK,,37.8268,32.415551,,
1955d,BÜYÜKÇİÇEK,,37.827016,32.41548,,
1956a,ULUSOYLAR,,37.827409,32.420188,,
1956d,ULUSOYLAR,,37.827606,32.420058,,
1957a,KAYAKENT,,37.919271,32.46989,,
1957d,KAYAKENT,,37.919353,32.469942,,
1958a,SEMAVİ,,37.917391,32.474684,,
1958d,SEMAVİ,,37.917436,32.474748,,
1959a,İKİPINAR,,37.958768,32.482919,,
1959d,İKİPINAR,,37.958998,32.482867,,
195a,MERAM BAĞLARI,,37.852936,32.42327,,
195d,MERAM BAĞLARI,,37.852968,32.423319,,
1960a,İĞDELİ AĞIL MEVKİ,,38.017662,32.389846,,
1960d,İĞDELİ AĞIL MEVKİ,,38.017559,32.389824,,
1961d,YÜKSELEN MEŞELİK,,38.029378,32.362925,,
1962a,ANADAĞ,,37.787536,32.523101,,
1962d,ANADAĞ,,37.787519,32.523033,,
1963a,HİSARLIK CD,,37.790988,32.520764,,
1963d,HİSARLIK CD,,37.790977,32.520702,,
1964a,AZİMLİ,,37.794216,32.518491,,
1964d,AZİMLİ,,37.794198,32.518419,,
1966a,SADAKAT,,37.801175,32.516475,,
1966d,SADAKAT,,37.8012833,32.5162667,,
1967a,ÖZBAYRAM,,37.804775,32.5156583,,
1967d,ÖZBAYRAM,,37.8048333,32.51545,,
1968a,TANIŞLI,,37.82769,32.43246,,
1968d,TANIŞLI,,37.827577,32.432542,,
1969a,ALIŞIK,,37.825194,32.429885,,
1969d,ALIŞIK,,37.825154,32.430039,,
196a,HADİS,,37.8311666,32.50555,,
196d,HADİS,,37.8311566,32.505419,,
1970a,YAZAN,,37.821637,32.42952,,
1970d,YAZAN,,37.821707,32.429715,,
1971a,TAŞPINAR,,37.81855,32.430576,,
1971d,TAŞPINAR,,37.818558,32.43071,,
1972a,ALTINOLUK CAMİ,,37.816506,32.431375,,
1972d,ALTINOLUK CAMİ,,37.816538,32.431469,,
1973a,TEPEGÖZ,,37.813837,32.432392,,
1973d,TEPEGÖZ,,37.813879,32.432476,,
1974a,OSMANLI CD,,37.724393,32.333485,,
1975a,ULUYAYLA CD ÜST GEÇİT,,37.914003,32.500038,,
1975d,ULUYAYLA CD ÜST GEÇİT,,37.914174,32.500065,,
1976a,RÜMEYSA,,37.690083,32.581927,,
1976d,RÜMEYSA,,37.690153,32.582158,,
1977a,KARAMAN YOLU ÇARIKLAR 1,,37.684041,32.585798,,
1977d,KARAMAN YOLU ÇARIKLAR 1,,37.68416,32.586117,,
1978a,KARAMAN YOLU ÇARIKLAR 2,,37.67966,32.588701,,
1978d,KARAMAN YOLU ÇARIKLAR 2,,37.67981,32.58899,,
1979a,KARAMAN YOLU ÇARIKLAR 3,,37.675312,32.59156,,
1979d,KARAMAN YOLU ÇARIKLAR 3,,37.675417,32.591782,,
197a,KÜÇÜK AYMANAS,,37.840132,32.503116,,
197d,KÜÇÜK AYMANAS,,37.840117,32.503008,,
1980a,PARSELLER TRAFO 1,,37.752257,32.510241,,
1980d,PARSELLER TRAFO 1,,37.75223,32.510167,,
1981a,PARSELLER TRAFO 2,,37.750355,32.511473,,
1981d,PARSELLER TRAFO 2,,37.750308,32.511411,,
1982a,PARSELLER TRAFO 3,,37.747636,32.514158,,
1982d,PARSELLER TRAFO 3,,37.747622,32.514084,,
1983a,PARSELLER TRAFO 4,,37.746106,32.511243,,
1983d,PARSELLER TRAFO 4,,37.74615,32.511204,,
1984a,PARSELLER TRAFO 5,,37.748129,32.50881,,
1984d,PARSELLER TRAFO 5,,37.748151,32.508908,,
1985a,PARSELLER TRAFO 6,,37.750729,32.506435,,
1985d,PARSELLER TRAFO 6,,37.750771,32.50654,,
1986a,ABDÜLMECİD,,37.979315,32.491146,,
1986d,ABDÜLMECİD,,37.979452,32.491362,,
198a,ŞEHİRLER,,37.819132,32.468048,,
198d,ŞEHİRLER,,37.819172,32.467984,,
1990a,ASLIM CD 1,,37.9508,32.57606,,
1990d,ASLIM CD 1,,37.950821,32.576521,,
1991a,ASLIM CD 2,,37.947275,32.5768917,,
1991d,ASLIM CD 2,,37.947275,32.5773517,,
1992a,ASLIM CD 3,,37.9429333,32.5776,,
1992d,ASLIM CD 3,,37.9429333,32.57799,,
1993a,ASLIM CD 4,,37.9391334,32.5758916,,
1993d,ASLIM CD 4,,37.9390534,32.5764516,,
1994a,ASLIM CD 5,,37.936675,32.5737083,,
1994d,ASLIM CD 5,,37.936555,32.5739983,,
1995a,KOBİSAN 1,,37.9358334,32.5701833,,
1995d,KOBİSAN 1,,37.9357234,32.5701833,,
1996a,KOBİSAN 2,,37.93767,32.5672,,
1996d,KOBİSAN 2,,37.9378933,32.5673,,
1997a,KOBİSAN 3,,37.9404417,32.5633833,,
1997d,KOBİSAN 3,,37.94037,32.56313,,
1998a,KOBİSAN 4,,37.9423917,32.5604833,,
1998d,KOBİSAN 4,,37.94237,32.559983,,
1999a,KOBİSAN 5,,37.941925,32.5579667,,
1999d,KOBİSAN 5,,37.941795,32.558202,,
199a,ŞEYH ŞAMİL CAMİ,,37.820539,32.468349,,
199d,ŞEYH ŞAMİL CAMİ,,37.820545,32.468279,,
19a,ESKİ GARAJ,,37.8652334,32.5024,,
19d,ESKİ GARAJ,,37.8652334,32.50265,,
2000a,KOBİSAN 6,,37.9390583,32.555625,,
2000d,KOBİSAN 6,,37.9390583,32.555755,,
2001a,KOBİSAN 7,,37.9361666,32.5527917,,
2001d,KOBİSAN 7,,37.935787,32.552916,,
2002a,KOBİSAN 8,,37.9329583,32.5515333,,
2002d,KOBİSAN 8,,37.933016,32.551843,,
2003a,GÜLİSTAN CD 1,,37.9309966,32.5545534,,
2003d,GÜLİSTAN CD 1,,37.9311966,32.5548034,,
2004a,GÜLİSTAN CD 2,,37.9288417,32.5580833,,
2004d,GÜLİSTAN CD 2,,37.9289917,32.5581833,,
2005a,GÜLİSTAN CD 3,,37.9262917,32.56205,,
2005d,GÜLİSTAN CD 3,,37.9265517,32.56219,,
2006a,ASLIM CD 6,,37.9226567,32.5612666,,
2006d,ASLIM CD 6,,37.922655,32.5616645,,
2007a,ASLIM CD 7,,37.919045,32.5579434,,
2007d,ASLIM CD 7,,37.918973,32.558303,,
2008a,ÖZLEM CD,,37.9163584,32.5555585,,
2008d,ÖZLEM CD,,37.916257,32.555996,,
2009a,ASLIM CD 8,,37.9133667,32.55465,,
2009d,ASLIM CD 8,,37.9133667,32.55495,,
200a,MESCİDİ AKSA CAMİ,,37.8222167,32.4748167,,
200d,MESCİDİ AKSA CAMİ,,37.8221667,32.4748333,,
2010a,10565. SK,,37.9105583,32.5545817,,
2010d,10565. SK,,37.9105083,32.5547817,,
2011a,DEMİR CD,,37.9163333,32.5452,,
2011d,DEMİR CD,,37.9163333,32.545,,
2012a,AYYILDIZ CD 1,,37.9189333,32.5454833,,
2012d,AYYILDIZ CD 1,,37.9189333,32.5455833,,
2013a,AYYILDIZ CD 2,,37.9214,32.5477917,,
2013d,AYYILDIZ CD 2,,37.9214,32.5478917,,
2014a,KUPA CD 1,,37.9247667,32.5497667,,
2014d,KUPA CD 1,,37.924645,32.54954,,
2015a,KUPA CD 2,,37.9268,32.546125,,
2015d,KUPA CD 2,,37.926819,32.545886,,
2016a,KENİTRA CD,,37.9285167,32.5431083,,
2016d,KENİTRA CD,,37.9283167,32.5431083,,
2017a,MEDCEZİR CD 1,,37.9274667,32.5398667,,
2017d,MEDCEZİR CD 1,,37.9273767,32.5398667,,
2018a,MEDCEZİR CD 2,,37.9247083,32.5374083,,
2018d,MEDCEZİR CD 2,,37.9246083,32.5374583,,
2019a,MEDCEZİR CD 3,,37.922575,32.5355167,,
2019d,MEDCEZİR CD 3,,37.922455,32.5356167,,
201a,FİDAN,,37.8214083,32.4779083,,
201d,FİDAN,,37.8214,32.4778,,
2020a,MEDCEZİR CD 4,,37.9200833,32.5333917,,
2020d,MEDCEZİR CD 4,,37.919991,32.533453,,
2021a,ÇELİK CD,,37.9183083,32.5350917,,
2021d,ÇELİK CD,,37.9184083,32.5350917,,
2022a,HÜDA CD 1,,37.9154167,32.5324583,,
2022d,HÜDA CD 1,,37.9153267,32.5323583,,
2023a,HÜDA CD 2,,37.9177666,32.5287167,,
2023d,HÜDA CD 2,,37.9175666,32.5286067,,
2024a,HÜDA CD 3,,37.919386,32.52578,,
2024d,HÜDA CD 3,,37.91949,32.525914,,
2025a,GAZZE CD 1,,37.8296,32.4771083,,
2025d,GAZZE CD 1,,37.8296,32.4769098,,
2026a,İBRAHİM ETHEM CAMİ,,37.833065,32.475355,,
2026d,İBRAHİM ETHEM CAMİ,,37.832966,32.475087,,
2027a,GAZZE CD 2,,37.836706,32.473834,,
2027d,GAZZE CD 2,,37.836675,32.473647,,
2028a,GAZZE CD 3,,37.8386083,32.473175,,
2028d,GAZZE CD 3,,37.8385583,32.473005,,
2029a,GAZZE CD 4,,37.8413583,32.4720417,,
2029d,GAZZE CD 4,,37.84132583,32.4719517,,
202a,ADİL ŞAHİN,,37.823201,32.468751,,
202d,ADİL ŞAHİN,,37.823122,32.468799,,
2030a,GAZZE CD 5,,37.8445983,32.471525,,
2030d,GAZZE CD 5,,37.8446583,32.471265,,
2031a,GAZZE CD 6,,37.847075,32.472125,,
2031d,GAZZE CD 6,,37.847175,32.472045,,
2032a,ŞATIR YOLU 2,,37.834172,32.721482,,
2033a,ŞEHİT ABDULLAH ASLAN 2,,37.865846,32.630327,,
2033d,ŞEHİT ABDULLAH ASLAN 2,,37.865903,32.630343,,
2034a,TOLULAR,,37.845632,32.621129,,
2035a,KILINÇYOLU,,37.854976,32.613057,,
2035d,KILINÇYOLU,,37.85496,32.613231,,
203a,GÖKTEN,,37.8231666,32.4717667,,
203d,GÖKTEN,,37.82315,32.4716,,
204a,ÇETİNCE,,37.826421,32.464813,,
205a,ÇARŞAMBA,,37.851518,32.465237,,
206a,TAPU VE KADASTRO,,37.8605334,32.4768333,,
2071a,SAKYATAN KANAL,,37.795544,32.804031,,
2072a,BAKIRTOLU YOL AYRIMI,,37.834387,32.789852,,
2073a,FERYADİ,,37.887901,32.476583,,
2073d,FERYADİ,,37.887958,32.476604,,
2074a,KILIÇARSLAN,,37.8898666,32.4742167,,
2074d,KILIÇARSLAN,,37.8898666,32.4743167,,
2075a,ELMAS KURAN KURSU,,37.8896334,32.470325,,
2075d,ELMAS KURAN KURSU,,37.8897334,32.470325,,
2076a,ADAKALE CD,,37.887475,32.467575,,
2076d,ADAKALE CD,,37.887555,32.467555,,
2077a,İNANÇ,,37.8847583,32.4647,,
2077d,İNANÇ,,37.8848383,32.4647,,
2078a,ŞEHİT ÖMER HALİSDEMİR CD,,37.88258,32.462148,,
2078d,ŞEHİT ÖMER HALİSDEMİR CD,,37.882652,32.462005,,
2079a,KIYAK,,37.8802,32.460946,,
2079d,KIYAK,,37.880268,32.460688,,
207a,MERAM KAYMAKAMLIĞI,,37.857121,32.469299,,
207d,MERAM KAYMAKAMLIĞI,,37.857397,32.469356,,
208a,MERAM BELEDİYESİ,,37.8562917,32.4715333,,
208d,MERAM BELEDİYESİ,,37.8565417,32.4715583,,
2096a,TATKÖY 16482. SK,,37.942031,32.378268,,
2096d,TATKÖY 16482. SK,,37.942031,32.378368,,
2097a,AHMET AYHAN CD,,38.006569,32.537984,,
2097d,AHMET AYHAN CD,,38.006836,32.537941,,
2098a,AKSARAY YOLU DSİ,,38.003599,32.787344,,
2098d,AKSARAY YOLU DSİ,,38.003555,32.788583,,
2099d,SAKYATAN İLK GİRİŞ,,37.840378,32.776058,,
209a,MERAM SANAYİ,,37.8546583,32.4677583,,
209d,MERAM SANAYİ,,37.8546083,32.4673417,,
2100a,MERAM SON DURAK,,37.837543,32.41751,,
2100d,MERAM SON DURAK,,37.837605,32.41736,,
2101a,KARATAY HALİ,,37.8368416,32.5267083,,
2101d,KARATAY HALİ,,37.83661,32.52692,,
2102a,KANAATKAR,,37.835875,32.4170417,,
2102d,KANAATKAR,,37.83595,32.41715,,
2103a,MAVİLİ,,37.861075,32.482825,,
2103d,MAVİLİ,,37.861185,32.482825,,
2105a,ÜNVAN,,37.8560667,32.4038667,,
2106a,AKDAĞ,,37.856398,32.40028,,
2107a,TANSU,,37.856202,32.397399,,
2108a,YEŞİL DERE 1,,37.856379,32.393479,,
2109a,SARAYKENT,,37.912217,32.485253,,
2109d,SARAYKENT,,37.912255,32.485601,,
210a,GEDİZ,,37.8530917,32.464575,,
210d,GEDİZ,,37.8532083,32.4643416,,
2110a,GAZİVEREN,,37.914498,32.484596,,
2110d,GAZİVEREN,,37.914573,32.484404,,
2111a,SELÇUKLU İTFAİYE,,37.916828,32.48926,,
2111d,SELÇUKLU İTFAİYE,,37.916955,32.489371,,
2112a,BEŞYOL,,37.877975,32.49416,,
2112d,BEŞYOL,,37.87945,32.495149,,
2113a,PELİTÖZÜ,,37.856876,32.540093,,
2113d,PELİTÖZÜ,,37.8570583,32.54,,
2114a,AHMET KELEŞOĞLU KÜLTÜR MERKEZİ,,37.884456,32.46858,,
2114d,AHMET KELEŞOĞLU KÜLTÜR MERKEZİ,,37.8842166,32.46837,,
2115a,ERBEYLİ,,37.904225,32.46032,,
2115d,ERBEYLİ,,37.9042417,32.46041,,
2116a,BAYDAR,,37.9248833,32.45012,,
2116d,BAYDAR,,37.9248167,32.45017,,
2117a,İLHAM,,37.9250834,32.44662,,
2117d,İLHAM,,37.9250333,32.44658,,
2118a,SİLLE ŞEHİR,,37.925925,32.4426,,
2118d,SİLLE ŞEHİR,,37.925875,32.44257,,
2119a,TUTKUN 2,,37.927175,32.43912,,
2119d,TUTKUN 2,,37.92715,32.43913,,
2120a,DÖNÜM,,37.9283417,32.43447,,
2120d,DÖNÜM,,37.92825,32.4345,,
2121a,BALDAĞI ,,37.808784,32.548804,,
2121d,BALDAĞI ,,37.808803,32.548713,,
2122a,ALARM,,37.811772,32.54676,,
2122d,ALARM,,37.811787,32.546653,,
2124a,KARAMEVLÜT,,37.8973083,32.47599,,
2124d,KARAMEVLÜT,,37.897471,32.476284,,
2125a,80 BİNDE DEVRİ ALEM,,37.8293,32.41287,,
2125d,80 BİNDE DEVRİ ALEM,,37.82934,32.41274,,
2126a,ARDIÇLI MERKEZ,,38.0151917,32.43496,,
2126d,ARDIÇLI MERKEZ,,38.0151583,32.43506,,
2127a,YÜKSELEN YOLU 2,,38.0247417,32.36615,,
2127d,YÜKSELEN YOLU 2,,38.0247417,32.36611,,
2128a,ÇARDAK,,38.034575,32.36183,,
2128d,ÇARDAK,,38.0345334,32.36183,,
2129a,YÜKSELEN YOLU 1,,38.0371417,32.35791,,
2129d,YÜKSELEN YOLU 1,,38.0371083,32.35791,,
212a,TÜRKOĞLU,,37.850525,32.461391,,
212d,TÜRKOĞLU,,37.850587,32.461101,,
2130a,LAVANTA,,38.058575,32.33371,,
2130d,LAVANTA,,38.0585917,32.33369,,
2131a,KARANFİL,,38.06509,32.33334,,
2131d,KARANFİL,,38.0651,32.33351,,
2132a,HASANDAĞI,,37.84005,32.51282,,
2132d,HASANDAĞI,,37.84,32.51282,,
2133a,YANIKLAR,,37.8251584,32.56918,,
2133d,YANIKLAR,,37.8252167,32.56937,,
2134a,HASAN ALİ YÜCEL ORTAOKULU,,37.821632,32.59918,,
2134d,HASAN ALİ YÜCEL ORTAOKULU,,37.821601,32.599226,,
2135a,EKİNKÖY,,37.8077917,32.64119,,
2135d,EKİNKÖY,,37.8078917,32.64074,,
2136a,ÇANCI,,37.8413583,32.53436,,
2136d,ÇANCI,,37.841389,32.534261,,
2137a,İBRAHİM KARAOĞLU ORTAOKULU,,37.8404333,32.53507,,
2137d,İBRAHİM KARAOĞLU ORTAOKULU,,37.84021,32.53508,,
2138a,HACILAR CAMİ,,37.8386917,32.53099,,
2138d,HACILAR CAMİ,,37.83856,32.53121,,
2139a,ORAN,,37.8674,32.6107167,,
2139d,ORAN,,37.8674,32.6108167,,
213a,ARİFİN CAMİ,,37.8489417,32.458225,,
213d,ARİFİN CAMİ,,37.8491,32.4581667,,
2140a,ŞEN,,37.8632584,32.63456,,
2140d,ŞEN,,37.8632167,32.63457,,
2141a,UĞUR,,37.8607417,32.63861,,
2141d,UĞUR,,37.860725,32.63873,,
2142a,TANZİMAT,,37.8604917,32.64156,,
2142d,TANZİMAT,,37.8605333,32.64162,,
2143a,ÇARŞAMBA ÇAYI 1,,37.84855,32.70547,,
2143d,ÇARŞAMBA ÇAYI 1,,37.84887,32.7054,,
2144a,SARICALAR,,37.8593583,32.48461,,
2144d,SARICALAR,,37.8592083,32.48489,,
2145a,SÖZBİR,,37.84855,32.50633,,
2145d,SÖZBİR,,37.8487834,32.50622,,
2146a,DALGIÇ,,37.7639334,32.4123,,
2146d,DALGIÇ,,37.7638333,32.41228,,
2147a,TORBALI,,37.87915,32.52757,,
2147d,TORBALI,,37.8789166,32.52723,,
2148a,RÜZGARLI,,38.06641,32.33135,,
2148d,RÜZGARLI,,38.06636,32.33128,,
2149a,GÜRMENEKŞE,,37.7626,32.40727,,
2149d,GÜRMENEKŞE,,37.7624666,32.40736,,
214a,ERGANİLER,,37.846798,32.456852,,
214d,ERGANİLER,,37.846964,32.456627,,
2150a,MEMLEKET,,37.7524584,32.39819,,
2150d,MEMLEKET,,37.7525083,32.39819,,
2151a,17331. SK,,37.75135,32.4031,,
2151d,17331. SK,,37.7514166,32.403,,
2152a,BİLECİK,,38.06199,32.33144,,
2152d,BİLECİK,,38.0619,32.3314,,
2153a,ALAKOVA SON DURAK,,37.773025,32.5015917,,
2153d,ALAKOVA SON DURAK,,37.773175,32.5014917,,
2154a,POYRAZOĞLU,,37.80035,32.4907667,,
2154d,POYRAZOĞLU,,37.80035,32.4907083,,
2155a,AKÇAKÖŞK ŞEHİTLER CAMİ,,37.7927334,32.4883917,,
2155d,AKÇAKÖŞK ŞEHİTLER CAMİ,,37.7926667,32.4883334,,
2156a,İĞDERE,,37.7961833,32.489175,,
2156d,İĞDERE,,37.7962834,32.489175,,
2157a,KETENLİ,,37.8144434,32.4976917,,
2157d,KETENLİ,,37.8144345,32.497525,,
2158a,ÜLFET,,37.8274583,32.4871167,,
2158d,ÜLFET,,37.8274167,32.4870167,,
2159a,CENGİZ BİLGE,,37.70684,32.568063,,
2159d,CENGİZ BİLGE,,37.706647,32.567823,,
215a,LALEBAHÇE POLİS MERKEZİ,,37.8430083,32.455115,,
215d,LALEBAHÇE POLİS MERKEZİ,,37.8429417,32.4549083,,
2160a,YOLAĞZI,,37.7599833,32.538525,,
2160d,YOLAĞZI,,37.7598917,32.538225,,
2161a,ASLIM CAMİ,,37.712304,32.557607,,
2161d,ASLIM CAMİ,,37.712297,32.557516,,
2162a,BULGURLU 1,,37.71037,32.55537,,
2162d,BULGURLU 1,,37.71046,32.55528,,
2163a,17560. SK,,37.708406,32.556329,,
2163d,17560. SK,,37.7083083,32.5560417,,
2164a,KAŞINHANI MEZARLIĞI,,37.706881,32.560223,,
2164d,KAŞINHANI MEZARLIĞI,,37.7067417,32.55996,,
2165a,HAN CAMİ,,37.705816,32.562789,,
2165d,HAN CAMİ,,37.705693,32.56265,,
2166a,HARA,,37.696245,32.583539,,
2166d,HARA,,37.696385,32.583625,,
2167a,UZUN KAVAK,,37.7901084,32.5278917,,
2167d,UZUN KAVAK,,37.7902083,32.5278917,,
2168a,TALHA,,37.79545,32.535559,,
2168d,TALHA,,37.79559,32.535559,,
2169a,BOZDAĞLAR,,37.8190017,32.5267167,,
2169d,BOZDAĞLAR,,37.8190717,32.5267167,,
216a,CANKARDEŞLER,,37.8386,32.4548666,,
216d,CANKARDEŞLER,,37.838625,32.4546583,,
2170a,BOLAYIR,,37.858877,32.498861,,
2170d,BOLAYIR,,37.858895,32.498797,,
2171a,CAMGÖZ,,37.7997333,32.5340834,,
2171d,CAMGÖZ,,37.7997834,32.5341167,,
2172a,OLİMPİYAT PARKI,,37.8077083,32.5402917,,
2172d,OLİMPİYAT PARKI,,37.80785,32.5401583,,
2173a,KAMİL YAYLALI ,,37.808161,32.544013,,
2173d,KAMİL YAYLALI ,,37.808256,32.543987,,
2174a,GÖKPINAR,,37.74533,32.52952,,
2174d,GÖKPINAR,,37.74523,32.52937,,
2175d,AKTAR,,37.823319,32.524209,,
2176a,17174. SK,,37.7370417,32.4663917,,
2177a,BEŞATLI,,37.8281667,32.5011167,,
2177d,BEŞATLI,,37.8284,32.5015667,,
2178a,ŞANLI,,37.8372167,32.50485,,
2178d,ŞANLI,,37.8371333,32.5047833,,
2179a,BADEMLİ,,37.857425,32.5002583,,
2179d,BADEMLİ,,37.857325,32.50025,,
217a,SÜSLÜ,,37.8352917,32.4532583,,
217d,SÜSLÜ,,37.8354083,32.4531083,,
2180a,KONULUK,,37.855325,32.5017917,,
2180d,KONULUK,,37.855325,32.5018917,,
2181a,KARAOĞLAN,,37.854101,32.503008,,
2181d,KARAOĞLAN,,37.853976,32.502987,,
2182a,ZEBERCET,,37.8510583,32.504275,,
2182d,ZEBERCET,,37.8510916,32.504175,,
2183a,KALENDERHANE,,37.6720583,32.5936583,,
2183d,KALENDERHANE,,37.6719833,32.594,,
2184a,ÇARDAK SON DURAK,,37.6502715888827,32.5562340952456,,
2185a,28691. SK,,37.7132917,32.528675,,
2185d,28691. SK,,37.713325,32.5286083,,
2186a,15574. SK,,37.7667417,32.519275,,
2186d,15574. SK,,37.7667167,32.519225,,
2188a,TABLO,,37.780805,32.517497,,
2188d,TABLO,,37.780977,32.517529,,
2189a,AYBAHÇE CAMİ,,37.780807,32.514665,,
2189d,AYBAHÇE CAMİ,,37.780754,32.514584,,
218a,HARMANCIK MEZARLIĞI,,37.8329583,32.4508333,,
218d,HARMANCIK MEZARLIĞI,,37.833025,32.4505917,,
2190a,MENGENE,,37.8533833,32.5399583,,
2190d,MENGENE,,37.8533583,32.5398333,,
2191a,TREN GARI,,37.866455,32.476878,,
2192a,KAŞINHANI KANTAR,,37.706864,32.569854,,
2193a,17557. SK,,37.7136,32.55516,,
2193d,17557. SK,,37.71352,32.55527,,
2194a,17111. SK,,37.71146,32.5532,,
2194d,17111. SK,,37.71156,32.55327,,
2195d,MAHİR,,37.87435,32.5418167,,
2196a,TEZERLER,,37.815454,32.543525,,
2196d,TEZERLER,,37.815414,32.543439,,
2197a,ESKİ YIKAMA,,37.8762246,32.501009,,
2198a,AHİ EVRAN MESLEKİ EĞİTİM MERKEZİ,,37.926467,32.529068,,
2199a,14311. SK,,37.9696083,32.683675,,
2199d,14311. SK,,37.9697083,32.683675,,
219a,HARMANCIK KUBA CAMİ,,37.8298083,32.447225,,
219d,HARMANCIK KUBA CAMİ,,37.8301167,32.4471833,,
21a,MEVLANA,,37.870236,32.505475,,
2200a,ZENCİRLİ 1,,37.9990833,32.8647666,,
2200d,ZENCİRLİ 1,,37.9991833,32.8647666,,
2201a,YEŞİL DERE 2,,37.854858,32.38994,,
2202a,AKİL,,38.029299,32.492063,,
2202d,AKİL,,38.029252,32.492268,,
2203a,KABAKCI,,38.02467,32.487923,,
2203d,KABAKCI,,38.024618,32.48781,,
2204a,ÖZEK,,38.022198,32.493738,,
2204d,ÖZEK,,38.022129,32.493674,,
2205a,3. ANA JET ÜSSÜ,,37.964125,32.568325,,
2205d,3. ANA JET ÜSSÜ,,37.964375,32.568125,,
2206a,16724. SK,,38.0056917,32.6117834,,
2206d,16724. SK,,38.006075,32.6114917,,
2208a,SELÇUKLU BEL. NİKAH SALONU,,37.945857,32.502687,,
2209a,GENÇ DEĞİRMEN,,38.0092917,32.6159917,,
2209d,GENÇ DEĞİRMEN,,38.0095917,32.6156083,,
220a,GÜLYAZI,,37.826331,32.445738,,
220d,GÜLYAZI,,37.826719,32.445679,,
2210a,ANKARA,,38.013875,32.62135,,
2210d,ANKARA,,38.0143583,32.621175,,
2211a,FAYDA KOLEJİ,,38.017075,32.6250583,,
2211d,FAYDA KOLEJİ,,38.0174417,32.6247917,,
2212a,KARAYOLLARI 3. BÖLGE,,38.036825,32.6110917,,
2212d,KARAYOLLARI 3. BÖLGE,,38.0369083,32.6109416,,
2213a,SELÇUKLU HOBİ BAHÇELERİ,,38.007947,32.614358,,
2213d,SELÇUKLU HOBİ BAHÇELERİ,,38.008245,32.614122,,
2214a,FADIL,,37.9559834,32.494475,,
2214d,FADIL,,37.9560333,32.4945917,,
2215a,AĞAÇERİ,,37.87219,32.514676,,
2215d,AĞAÇERİ,,37.871725,32.514869,,
2216a,KARATAY ÜNİVERSİTESİ,,37.864163,32.536082,,
2216d,KARATAY ÜNİVERSİTESİ,,37.864232,32.53583,,
2217a,HACI ÇAYI,,37.7629917,32.4051916,,
2217d,HACI ÇAYI,,37.762925,32.4053083,,
2218a,ATALI,,37.8053417,32.4127084,,
2218d,ATALI,,37.8052417,32.412775,,
2219a,ATALI 2,,37.804389,32.415112,,
2219d,ATALI 2,,37.804468,32.415112,,
221a,BAKİ,,37.757451,32.369633,,
2220a,ZÜMRÜTTAŞI,,37.78126,32.407205,,
2220d,ZÜMRÜTTAŞI,,37.781164,32.4072,,
2221a,SIZINTI,,37.775289,32.406991,,
2221d,SIZINTI,,37.775249,32.407076,,
2222a,ÖMERUL FARUK CAMİİ,,37.772731,32.406577,,
2222d,ÖMERUL FARUK CAMİİ,,37.772729,32.406674,,
2223a,BEYBES,,37.76892,32.404174,,
2223d,BEYBES,,37.768948,32.404255,,
2224a,HATIP MEZARLIĞI,,37.7668083,32.404625,,
2224d,HATIP MEZARLIĞI,,37.7668167,32.4046833,,
2225a,HATIP CAMİ,,37.76595,32.4063416,,
2225d,HATIP CAMİ,,37.7659916,32.4063917,,
2226a,AKINCI,,38.019482,32.493357,,
2226d,AKINCI,,38.019549,32.493432,,
2227a,ANKARA YOLU,,38.0247583,32.6339417,,
2227d,ANKARA YOLU,,38.0251417,32.6337083,,
2228a,MENEKŞE,,38.0293084,32.6428,,
2228d,MENEKŞE,,38.029125,32.6431833,,
2229a,KOCA YUSUF 2,,38.0220667,32.6593834,,
2229d,KOCA YUSUF 2,,38.0221583,32.6596167,,
222a,İYİCAN,,37.822075,32.443375,,
222d,İYİCAN,,37.8222,32.443225,,
2230a,16906. SK,,38.0242917,32.67745,,
2230d,16906. SK,,38.0243333,32.6775166,,
2231a,5. SK,,37.9653833,32.62335,,
2231d,5. SK,,37.965575,32.623775,,
2232a,ALİYA İZZET BEGOVİÇ,,37.9994917,32.577425,,
2232d,ALİYA İZZET BEGOVİÇ,,37.9997334,32.5776917,,
2233a,MEKKE ,,37.98735,32.5230667,,
2233d,MEKKE ,,37.9872167,32.5232833,,
2234a,775881. SK,,37.9030917,32.3995083,,
2234d,775881. SK,,37.903075,32.3994167,,
2235a,16376. SK,,37.914875,32.3715583,,
2235d,16376. SK,,37.914975,32.3715083,,
2236a,HZ. ALİ CAMİ,,37.9161583,32.3688583,,
2236d,HZ. ALİ CAMİ,,37.9161583,32.368725,,
2237a,16378. SK,,37.9185583,32.3667083,,
2237d,16378. SK,,37.9185083,32.3667083,,
2238a,16373. SK,,37.921475,32.365475,,
2238d,16373. SK,,37.921475,32.365525,,
2239a,16370. SK,,37.9254416,32.3632333,,
2239d,16370. SK,,37.9255083,32.3632083,,
223a,KARAHÜYÜK MEZARLIĞI,,37.820375,32.4415083,,
223d,KARAHÜYÜK MEZARLIĞI,,37.8203334,32.4411583,,
2240a,16353. SK,,37.9280416,32.3631917,,
2240d,16353. SK,,37.9283167,32.3630583,,
2241a,SULUTAS MERKEZ,,37.930066,32.361939,,
2241d,SULUTAS MERKEZ,,37.93005,32.361842,,
2242a,SARAY,,37.929834,32.359037,,
2242d,SARAY,,37.929758,32.359101,,
2243a,BEYAZGÜL,,37.9398666,32.4996166,,
2243d,BEYAZGÜL,,37.9398833,32.49975,,
2244a,BAŞKALE,,37.9365367,32.4989567,,
2244d,BAŞKALE,,37.9365333,32.499,,
2245a,SONBİRLİK CAMİ,,37.9078083,32.5420417,,
2246a,MAKPARSAN,,37.9085583,32.543325,,
2247a,10618. SK,,37.9065584,32.546575,,
2248a,SARMAŞIK,,37.9027583,32.5457417,,
2249a,BATTALGAZİ,,37.8998583,32.5445583,,
224a,TAŞLIPINAR,,37.8176583,32.4384917,,
224d,TAŞLIPINAR,,37.8177583,32.438375,,
2250a,GÜRHANLAR,,37.9003166,32.5430583,,
2251a,MERAM,,37.9035334,32.5443667,,
2252a,ÖZKAFA,,37.9057583,32.5431917,,
2253a,10632. SK,,37.9231333,32.5305333,,
2254a,EREN,,37.905863,32.449268,,
2254d,EREN,,37.905853,32.449359,,
2255a,OĞUZYİĞİT,,37.9546917,32.3698083,,
2255d,OĞUZYİĞİT,,37.9547167,32.3696917,,
2256a,16457. SK,,37.957218,32.368679,,
2256d,16457. SK,,37.9571,32.36867,,
2257a,MİMARSİNAN,,37.9190583,32.4406833,,
2257d,MİMARSİNAN,,37.9190083,32.4406,,
2258a,ASLAN,,37.901821,32.448329,,
2258d,ASLAN,,37.901808,32.448515,,
2259a,TÜRK TELEKOM LİSESİ,,37.9541583,32.490575,,
2259d,TÜRK TELEKOM LİSESİ,,37.9541083,32.490725,,
225a,DÖNERTAŞ,,37.815725,32.436175,,
225d,DÖNERTAŞ,,37.815725,32.435925,,
2260a,PAPATYA,,37.9405,32.4929667,,
2260d,PAPATYA,,37.9404833,32.4931834,,
2261a,EYÜP SULTAN,,37.9370166,32.4975834,,
2261d,EYÜP SULTAN,,37.9372583,32.4976083,,
2262a,ÖZLEM,,37.9369667,32.4997833,,
2262d,ÖZLEM,,37.9372666,32.4998166,,
2263a,CAHİT ZARİFOĞLU İLKOKULU,,37.9560417,32.5075167,,
2263d,CAHİT ZARİFOĞLU İLKOKULU,,37.9559,32.5075333,,
2264a,ÖZTEKİNLER,,37.95605,32.50385,,
2264d,ÖZTEKİNLER,,37.9559167,32.5039334,,
2265a,SARAY BOSNA,,37.9556084,32.5000334,,
2265d,SARAY BOSNA,,37.955525,32.5002167,,
2266a,YENİ YAPI,,37.97085,32.5095667,,
2266d,YENİ YAPI,,37.9708,32.5093334,,
2267a,ŞAFAK,,37.973075,32.51095,,
